{
  "type": "FeatureCollection",
  "features": [
    {
      "type": "Feature",
      "geometry": {
        "type": "Point",
        "coordinates": [
          73.0112495,
          33.6988403
        ]
      },
      "properties": {
        "id": 61146835,
        "name": "Total Parco , F-10 Markaz",
        "addr:city": "اسلام آباد",
        "addr:city:ar": "إسلام آباد",
        "addr:city:en": "Islamabad",
        "addr:city:ks": "اِسلام آبادٖ",
        "addr:city:pnb": "اسلام آباد",
        "addr:city:ps": "اسلام آباد",
        "addr:city:sd": "اسلام آباد",
        "addr:city:ur": "اسلام آباد",
        "addr:street": "10th Avenue",
        "amenity": "fuel",
        "fuel:cng": "yes"
      }
    },
    {
      "type": "Feature",
      "geometry": {
        "type": "Point",
        "coordinates": [
          73.0944042,
          33.5846699
        ]
      },
      "properties": {
        "id": 98166308,
        "name": "Caltex Filling Station",
        "amenity": "fuel",
        "fuel:cng": "yes"
      }
    },
    {
      "type": "Feature",
      "geometry": {
        "type": "Point",
        "coordinates": [
          73.0833662,
          33.717309500000006
        ]
      },
      "properties": {
        "id": 104694747,
        "name": "Unnamed",
        "amenity": "fuel",
        "fuel:cng": "yes",
        "is_in": "Melody Market, G-6, Islamabad"
      }
    },
    {
      "type": "Feature",
      "geometry": {
        "type": "Point",
        "coordinates": [
          73.0389002,
          33.710002700000004
        ]
      },
      "properties": {
        "id": 225578480,
        "name": "پاکستان اسٹیٹ آئل",
        "addr:city": "اسلام آباد",
        "addr:city:ar": "إسلام آباد",
        "addr:city:ks": "اِسلام آبادٖ",
        "addr:city:pnb": "اسلام آباد",
        "addr:city:ps": "اسلام آباد",
        "addr:city:sd": "اسلام آباد",
        "addr:city:ur": "اسلام آباد",
        "addr:street": "F8 markaz",
        "amenity": "fuel",
        "brand": "پاکستان اسٹیٹ آئل",
        "brand:ar": "النفط الحكومية الباكستانية",
        "brand:ks": "پاکستان اسٹیٹ آئل",
        "brand:ur": "پاکستان اسٹیٹ آئل",
        "brand:wikidata": "Q2741455",
        "brand:wikipedia": "ur:پاکستان اسٹیٹ آئل",
        "brand:wikipedia:ur": "پاکستان اسٹیٹ آئل",
        "fuel:HSD": "yes",
        "fuel:Hi_octane": "yes",
        "fuel:cng": "yes",
        "fuel:diesel": "yes",
        "fuel:regular": "yes",
        "fuel:super": "yes",
        "name:ar": "النفط الحكومية الباكستانية",
        "name:en": "Pakistan State Oil",
        "name:ks": "پاکستان اسٹیٹ آئل",
        "name:pnb": "پاکستان سٹیٹ آئل",
        "name:sd": "پاڪستان اسٽيٽ آئل",
        "name:ur": "پاکستان اسٹیٹ آئل",
        "short_name": "پی ایس او",
        "short_name:ur": "پی ایس او"
      }
    },
    {
      "type": "Feature",
      "geometry": {
        "type": "Point",
        "coordinates": [
          73.03374600000001,
          33.689396300000006
        ]
      },
      "properties": {
        "id": 232641948,
        "name": "PSO Pump G-9 Markez",
        "amenity": "fuel",
        "brand": "پاکستان اسٹیٹ آئل",
        "brand:en": "Pakistan State Oil",
        "brand:pa": "ਪਾਕਸਤਾਨ ਸਟੇਟ ਆਇਲ",
        "brand:pnb": "پاکستان سٹیٹ آئیل",
        "brand:ur": "پاکستان اسٹیٹ آئل",
        "brand:wikidata": "Q2741455",
        "fuel:cng": "yes",
        "is_in": "G-9 Markaz, G-9, Islamabad",
        "name:en": "Pakistan State Oil",
        "name:pa": "ਪਾਕਸਤਾਨ ਸਟੇਟ ਆਇਲ",
        "name:pnb": "پاکستان سٹیٹ آئیل",
        "name:ur": "پاکستان اسٹیٹ آئل",
        "operator": "PSO Pump G-9 Markez",
        "short_name:en": "PSO",
        "source": "Yahoo + Local Knowledge"
      }
    },
    {
      "type": "Feature",
      "geometry": {
        "type": "Point",
        "coordinates": [
          73.040259,
          33.7132584
        ]
      },
      "properties": {
        "id": 243495585,
        "name": "Total Station",
        "addr:city": "اسلام آباد",
        "addr:city:ar": "إسلام آباد",
        "addr:city:en": "Islamabad",
        "addr:city:ks": "اِسلام آبادٖ",
        "addr:city:pnb": "اسلام آباد",
        "addr:city:ps": "اسلام آباد",
        "addr:city:sd": "اسلام آباد",
        "addr:city:ur": "اسلام آباد",
        "addr:street": "Kohistan Road",
        "amenity": "fuel",
        "brand": "Caltex",
        "fuel:cng": "yes"
      }
    },
    {
      "type": "Feature",
      "geometry": {
        "type": "Point",
        "coordinates": [
          73.0619384,
          33.5991725
        ]
      },
      "properties": {
        "id": 243531194,
        "name": "Safeway CNG",
        "addr:city": "راولپنڈی",
        "addr:city:en": "Rawalpindi",
        "addr:city:fr": "Rawalpindi",
        "addr:city:pa": "ਰਾਵਲਪਿੰਡੀ",
        "addr:city:pnb": "راولپنڈی",
        "addr:city:ur": "راولپنڈی",
        "addr:street": "Murree Road",
        "amenity": "fuel",
        "fuel:cng": "yes"
      }
    },
    {
      "type": "Feature",
      "geometry": {
        "type": "Point",
        "coordinates": [
          73.0501914,
          33.6985338
        ]
      },
      "properties": {
        "id": 244393698,
        "name": "پاکستان اسٹیٹ آئل",
        "addr:city": "اسلام آباد",
        "addr:city:ar": "إسلام آباد",
        "addr:city:ks": "اِسلام آبادٖ",
        "addr:city:pnb": "اسلام آباد",
        "addr:city:ps": "اسلام آباد",
        "addr:city:sd": "اسلام آباد",
        "addr:city:ur": "اسلام آباد",
        "addr:street": "Hanna Road",
        "amenity": "fuel",
        "brand": "پاکستان اسٹیٹ آئل",
        "brand:ar": "النفط الحكومية الباكستانية",
        "brand:ks": "پاکستان اسٹیٹ آئل",
        "brand:ur": "پاکستان اسٹیٹ آئل",
        "brand:wikidata": "Q2741455",
        "brand:wikipedia": "ur:پاکستان اسٹیٹ آئل",
        "brand:wikipedia:ur": "پاکستان اسٹیٹ آئل",
        "fuel:cng": "yes",
        "name:ar": "النفط الحكومية الباكستانية",
        "name:en": "Pakistan State Oil",
        "name:ks": "پاکستان اسٹیٹ آئل",
        "name:pnb": "پاکستان سٹیٹ آئل",
        "name:sd": "پاڪستان اسٽيٽ آئل",
        "name:ur": "پاکستان اسٹیٹ آئل",
        "short_name": "پی ایس او",
        "short_name:ur": "پی ایس او"
      }
    },
    {
      "type": "Feature",
      "geometry": {
        "type": "Point",
        "coordinates": [
          73.1806038,
          33.5143362
        ]
      },
      "properties": {
        "id": 248110276,
        "name": "پاکستان اسٹیٹ آئل",
        "amenity": "fuel",
        "brand": "پاکستان اسٹیٹ آئل",
        "brand:ar": "النفط الحكومية الباكستانية",
        "brand:ks": "پاکستان اسٹیٹ آئل",
        "brand:ur": "پاکستان اسٹیٹ آئل",
        "brand:wikidata": "Q2741455",
        "brand:wikipedia": "ur:پاکستان اسٹیٹ آئل",
        "brand:wikipedia:ur": "پاکستان اسٹیٹ آئل",
        "name:ar": "النفط الحكومية الباكستانية",
        "name:en": "Pakistan State Oil",
        "name:ks": "پاکستان اسٹیٹ آئل",
        "name:pnb": "پاکستان سٹیٹ آئل",
        "name:sd": "پاڪستان اسٽيٽ آئل",
        "name:ur": "پاکستان اسٹیٹ آئل",
        "short_name": "پی ایس او",
        "short_name:ur": "پی ایس او"
      }
    },
    {
      "type": "Feature",
      "geometry": {
        "type": "Point",
        "coordinates": [
          73.0739329,
          33.5871342
        ]
      },
      "properties": {
        "id": 248933520,
        "name": "پاکستان اسٹیٹ آئل",
        "amenity": "fuel",
        "brand": "پاکستان اسٹیٹ آئل",
        "brand:ar": "النفط الحكومية الباكستانية",
        "brand:ks": "پاکستان اسٹیٹ آئل",
        "brand:ur": "پاکستان اسٹیٹ آئل",
        "brand:wikidata": "Q2741455",
        "brand:wikipedia": "ur:پاکستان اسٹیٹ آئل",
        "brand:wikipedia:ur": "پاکستان اسٹیٹ آئل",
        "name:ar": "النفط الحكومية الباكستانية",
        "name:en": "Pakistan State Oil",
        "name:ks": "پاکستان اسٹیٹ آئل",
        "name:pnb": "پاکستان سٹیٹ آئل",
        "name:sd": "پاڪستان اسٽيٽ آئل",
        "name:ur": "پاکستان اسٹیٹ آئل",
        "short_name": "پی ایس او",
        "short_name:ur": "پی ایس او"
      }
    },
    {
      "type": "Feature",
      "geometry": {
        "type": "Point",
        "coordinates": [
          73.105393,
          33.6432847
        ]
      },
      "properties": {
        "id": 248936001,
        "name": "پاکستان اسٹیٹ آئل",
        "amenity": "fuel",
        "brand": "پاکستان اسٹیٹ آئل",
        "brand:ar": "النفط الحكومية الباكستانية",
        "brand:ks": "پاکستان اسٹیٹ آئل",
        "brand:ur": "پاکستان اسٹیٹ آئل",
        "brand:wikidata": "Q2741455",
        "brand:wikipedia": "ur:پاکستان اسٹیٹ آئل",
        "brand:wikipedia:ur": "پاکستان اسٹیٹ آئل",
        "name:ar": "النفط الحكومية الباكستانية",
        "name:en": "Pakistan State Oil",
        "name:ks": "پاکستان اسٹیٹ آئل",
        "name:pnb": "پاکستان سٹیٹ آئل",
        "name:sd": "پاڪستان اسٽيٽ آئل",
        "name:ur": "پاکستان اسٹیٹ آئل",
        "short_name": "پی ایس او",
        "short_name:ur": "پی ایس او"
      }
    },
    {
      "type": "Feature",
      "geometry": {
        "type": "Point",
        "coordinates": [
          73.10481220000001,
          33.708632300000005
        ]
      },
      "properties": {
        "id": 249166537,
        "name": "Shell Pump",
        "amenity": "fuel",
        "is_in": "Islamabad"
      }
    },
    {
      "type": "Feature",
      "geometry": {
        "type": "Point",
        "coordinates": [
          71.47654920000001,
          29.261215000000004
        ]
      },
      "properties": {
        "id": 251071839,
        "name": "پاکستان اسٹیٹ آئل",
        "amenity": "fuel",
        "brand": "پاکستان اسٹیٹ آئل",
        "brand:ar": "النفط الحكومية الباكستانية",
        "brand:ks": "پاکستان اسٹیٹ آئل",
        "brand:ur": "پاکستان اسٹیٹ آئل",
        "brand:wikidata": "Q2741455",
        "brand:wikipedia": "ur:پاکستان اسٹیٹ آئل",
        "brand:wikipedia:ur": "پاکستان اسٹیٹ آئل",
        "name:ar": "النفط الحكومية الباكستانية",
        "name:en": "Pakistan State Oil",
        "name:ks": "پاکستان اسٹیٹ آئل",
        "name:pnb": "پاکستان سٹیٹ آئل",
        "name:sd": "پاڪستان اسٽيٽ آئل",
        "name:ur": "پاکستان اسٹیٹ آئل",
        "short_name": "پی ایس او",
        "short_name:ur": "پی ایس او"
      }
    },
    {
      "type": "Feature",
      "geometry": {
        "type": "Point",
        "coordinates": [
          71.4757167,
          29.2591858
        ]
      },
      "properties": {
        "id": 251071842,
        "name": "Total Parco Gas Station",
        "amenity": "fuel",
        "created_by": "Potlatch 0.7b"
      }
    },
    {
      "type": "Feature",
      "geometry": {
        "type": "Point",
        "coordinates": [
          71.66165170000001,
          29.385041700000002
        ]
      },
      "properties": {
        "id": 251071969,
        "name": "Unnamed",
        "addr:city": "بہاولپور",
        "amenity": "fuel"
      }
    },
    {
      "type": "Feature",
      "geometry": {
        "type": "Point",
        "coordinates": [
          71.6462041,
          29.480313400000004
        ]
      },
      "properties": {
        "id": 251105052,
        "name": "Unnamed",
        "amenity": "fuel",
        "created_by": "Potlatch 0.7b"
      }
    },
    {
      "type": "Feature",
      "geometry": {
        "type": "Point",
        "coordinates": [
          71.649809,
          29.547059200000003
        ]
      },
      "properties": {
        "id": 251105780,
        "name": "Unnamed",
        "amenity": "fuel",
        "created_by": "Potlatch 0.7b"
      }
    },
    {
      "type": "Feature",
      "geometry": {
        "type": "Point",
        "coordinates": [
          71.6514655,
          29.565388700000003
        ]
      },
      "properties": {
        "id": 251105828,
        "name": "Unnamed",
        "amenity": "fuel",
        "created_by": "Potlatch 0.7b"
      }
    },
    {
      "type": "Feature",
      "geometry": {
        "type": "Point",
        "coordinates": [
          69.0203207,
          27.7399942
        ]
      },
      "properties": {
        "id": 251193204,
        "name": "Unnamed",
        "amenity": "fuel",
        "created_by": "Potlatch 0.7b"
      }
    },
    {
      "type": "Feature",
      "geometry": {
        "type": "Point",
        "coordinates": [
          68.94579390000001,
          27.685999300000002
        ]
      },
      "properties": {
        "id": 251193611,
        "name": "Unnamed",
        "amenity": "fuel",
        "created_by": "Potlatch 0.7b"
      }
    },
    {
      "type": "Feature",
      "geometry": {
        "type": "Point",
        "coordinates": [
          68.86392000000001,
          27.667019600000003
        ]
      },
      "properties": {
        "id": 251195576,
        "name": "Al Khadim Petroleum Service",
        "addr:street": "National Highway 5",
        "amenity": "fuel"
      }
    },
    {
      "type": "Feature",
      "geometry": {
        "type": "Point",
        "coordinates": [
          68.80786400000001,
          27.6279627
        ]
      },
      "properties": {
        "id": 251196006,
        "name": "Gas Station",
        "amenity": "fuel"
      }
    },
    {
      "type": "Feature",
      "geometry": {
        "type": "Point",
        "coordinates": [
          68.80170620000001,
          27.622407300000003
        ]
      },
      "properties": {
        "id": 251196247,
        "name": "شیل",
        "addr:city": "Karamabad",
        "addr:street": "National Highway 5",
        "amenity": "fuel",
        "brand": "شیل",
        "brand:ar": "شل",
        "brand:ur": "شیل",
        "brand:wikidata": "Q154950",
        "brand:wikipedia": "ur:رائل دٹچ شیل",
        "brand:wikipedia:ar": "رويال داتش شل",
        "brand:wikipedia:ur": "رائل دٹچ شیل",
        "name:ar": "شل",
        "name:en": "Shell",
        "name:fa": "شل",
        "name:pa": "ਸ਼ੈਲ",
        "name:ur": "شیل"
      }
    },
    {
      "type": "Feature",
      "geometry": {
        "type": "Point",
        "coordinates": [
          68.6823744,
          27.4882111
        ]
      },
      "properties": {
        "id": 251196930,
        "name": "Gas Station",
        "addr:city": "Khairpur",
        "addr:street": "National Highway 5",
        "amenity": "fuel"
      }
    },
    {
      "type": "Feature",
      "geometry": {
        "type": "Point",
        "coordinates": [
          68.80063700000001,
          27.6227832
        ]
      },
      "properties": {
        "id": 251198148,
        "name": "Caltex",
        "addr:city": "Karamabad",
        "addr:street": "National Highway 5",
        "amenity": "fuel"
      }
    },
    {
      "type": "Feature",
      "geometry": {
        "type": "Point",
        "coordinates": [
          74.177655,
          31.429257400000004
        ]
      },
      "properties": {
        "id": 251310757,
        "name": "Unnamed",
        "amenity": "fuel",
        "created_by": "Potlatch 0.7b"
      }
    },
    {
      "type": "Feature",
      "geometry": {
        "type": "Point",
        "coordinates": [
          72.7832216,
          33.3201436
        ]
      },
      "properties": {
        "id": 251965919,
        "name": "PSO, Chakri North",
        "amenity": "fuel"
      }
    },
    {
      "type": "Feature",
      "geometry": {
        "type": "Point",
        "coordinates": [
          72.7850616,
          33.3205235
        ]
      },
      "properties": {
        "id": 251965937,
        "name": "PSO, Chakri South",
        "amenity": "fuel"
      }
    },
    {
      "type": "Feature",
      "geometry": {
        "type": "Point",
        "coordinates": [
          68.273204,
          25.452017200000004
        ]
      },
      "properties": {
        "id": 252223832,
        "name": "پاکستان اسٹیٹ آئل",
        "addr:city": "Jamshoro",
        "addr:street": "Indus Highway",
        "amenity": "fuel",
        "brand": "پاکستان اسٹیٹ آئل",
        "brand:ar": "النفط الحكومية الباكستانية",
        "brand:ks": "پاکستان اسٹیٹ آئل",
        "brand:ur": "پاکستان اسٹیٹ آئل",
        "brand:wikidata": "Q2741455",
        "brand:wikipedia": "ur:پاکستان اسٹیٹ آئل",
        "brand:wikipedia:ur": "پاکستان اسٹیٹ آئل",
        "name:ar": "النفط الحكومية الباكستانية",
        "name:en": "Pakistan State Oil",
        "name:ks": "پاکستان اسٹیٹ آئل",
        "name:pnb": "پاکستان سٹیٹ آئل",
        "name:sd": "پاڪستان اسٽيٽ آئل",
        "name:ur": "پاکستان اسٹیٹ آئل",
        "short_name": "پی ایس او",
        "short_name:ur": "پی ایس او",
        "waterway": "fuel"
      }
    },
    {
      "type": "Feature",
      "geometry": {
        "type": "Point",
        "coordinates": [
          68.36889240000001,
          25.445210300000003
        ]
      },
      "properties": {
        "id": 252285093,
        "name": "Fuel",
        "amenity": "fuel"
      }
    },
    {
      "type": "Feature",
      "geometry": {
        "type": "Point",
        "coordinates": [
          68.3771236,
          25.449054500000003
        ]
      },
      "properties": {
        "id": 252285113,
        "name": "Super Hilal Petroleum Service",
        "addr:city": "حیدرآباد",
        "addr:city:en": "Hyderabad",
        "addr:city:fr": "Hyderâbâd",
        "addr:city:pa": "ਹੈਦਰਾਬਾਦ",
        "addr:city:ur": "حیدرآباد",
        "addr:street": "Hyderabad Bypass",
        "amenity": "fuel"
      }
    },
    {
      "type": "Feature",
      "geometry": {
        "type": "Point",
        "coordinates": [
          68.3887526,
          25.458181200000002
        ]
      },
      "properties": {
        "id": 252285258,
        "name": "Khyber Trucking Station",
        "addr:city": "حیدرآباد",
        "addr:city:en": "Hyderabad",
        "addr:city:fr": "Hyderâbâd",
        "addr:city:pa": "ਹੈਦਰਾਬਾਦ",
        "addr:city:ur": "حیدرآباد",
        "addr:housenumber": "South Bound",
        "addr:street": "National Highway",
        "amenity": "fuel"
      }
    },
    {
      "type": "Feature",
      "geometry": {
        "type": "Point",
        "coordinates": [
          68.3875594,
          25.457964800000003
        ]
      },
      "properties": {
        "id": 252285306,
        "name": "Taj Petroleum",
        "amenity": "fuel",
        "brand:ar": "النفط الحكومية الباكستانية",
        "brand:ks": "پاکستان اسٹیٹ آئل",
        "brand:wikipedia": "ur:پاکستان اسٹیٹ آئل",
        "brand:wikipedia:ur": "پاکستان اسٹیٹ آئل",
        "name:ar": "النفط الحكومية الباكستانية",
        "name:ks": "پاکستان اسٹیٹ آئل",
        "name:sd": "پاڪستان اسٽيٽ آئل",
        "not:brand:wikidata": "Q2741455",
        "short_name": "پی ایس او",
        "short_name:ur": "پی ایس او"
      }
    },
    {
      "type": "Feature",
      "geometry": {
        "type": "Point",
        "coordinates": [
          68.3894918,
          25.461407700000002
        ]
      },
      "properties": {
        "id": 252285308,
        "name": "Abaseen Shell Petrol Pump",
        "addr:city": "حیدرآباد",
        "addr:city:en": "Hyderabad",
        "addr:city:fr": "Hyderâbâd",
        "addr:city:pa": "ਹੈਦਰਾਬਾਦ",
        "addr:city:ur": "حیدرآباد",
        "addr:street": "National Highway",
        "amenity": "fuel"
      }
    },
    {
      "type": "Feature",
      "geometry": {
        "type": "Point",
        "coordinates": [
          68.39394700000001,
          25.4684759
        ]
      },
      "properties": {
        "id": 252285438,
        "name": "Shaheen Petrol & Service Station",
        "addr:city": "حیدرآباد",
        "addr:city:en": "Hyderabad",
        "addr:city:fr": "Hyderâbâd",
        "addr:city:pa": "ਹੈਦਰਾਬਾਦ",
        "addr:city:ur": "حیدرآباد",
        "addr:housenumber": "North Bound",
        "addr:street": "National Highway",
        "amenity": "fuel"
      }
    },
    {
      "type": "Feature",
      "geometry": {
        "type": "Point",
        "coordinates": [
          68.4391363,
          25.594508100000002
        ]
      },
      "properties": {
        "id": 252299750,
        "name": "Unnamed",
        "amenity": "fuel",
        "created_by": "Potlatch 0.7b"
      }
    },
    {
      "type": "Feature",
      "geometry": {
        "type": "Point",
        "coordinates": [
          68.31920500000001,
          25.400163900000003
        ]
      },
      "properties": {
        "id": 252305671,
        "name": "petrol pump",
        "amenity": "fuel"
      }
    },
    {
      "type": "Feature",
      "geometry": {
        "type": "Point",
        "coordinates": [
          73.07833910000001,
          33.728221500000004
        ]
      },
      "properties": {
        "id": 253127769,
        "name": "پاکستان اسٹیٹ آئل",
        "amenity": "fuel",
        "brand": "پاکستان اسٹیٹ آئل",
        "brand:ar": "النفط الحكومية الباكستانية",
        "brand:en": "Pakistan State Oil",
        "brand:ks": "پاکستان اسٹیٹ آئل",
        "brand:pa": "ਪਾਕਸਤਾਨ ਸਟੇਟ ਆਇਲ",
        "brand:pnb": "پاکستان سٹیٹ آئیل",
        "brand:ur": "پاکستان اسٹیٹ آئل",
        "brand:wikidata": "Q2741455",
        "brand:wikipedia": "ur:پاکستان اسٹیٹ آئل",
        "brand:wikipedia:ur": "پاکستان اسٹیٹ آئل",
        "name:ar": "النفط الحكومية الباكستانية",
        "name:en": "Pakistan State Oil",
        "name:ks": "پاکستان اسٹیٹ آئل",
        "name:pa": "ਪਾਕਸਤਾਨ ਸਟੇਟ ਆਇਲ",
        "name:pnb": "پاکستان سٹیٹ آئل",
        "name:sd": "پاڪستان اسٽيٽ آئل",
        "name:ur": "پاکستان اسٹیٹ آئل",
        "short_name": "پی ایس او",
        "short_name:en": "PSO",
        "short_name:ur": "پی ایس او"
      }
    },
    {
      "type": "Feature",
      "geometry": {
        "type": "Point",
        "coordinates": [
          73.0749401,
          33.728328700000006
        ]
      },
      "properties": {
        "id": 253127791,
        "name": "Total",
        "addr:city": "اسلام آباد",
        "addr:city:ar": "إسلام آباد",
        "addr:city:en": "Islamabad",
        "addr:city:ks": "اِسلام آبادٖ",
        "addr:city:pnb": "اسلام آباد",
        "addr:city:ps": "اسلام آباد",
        "addr:city:sd": "اسلام آباد",
        "addr:city:ur": "اسلام آباد",
        "addr:street": "Agha Khan Road",
        "amenity": "fuel",
        "fuel:diesel": "yes",
        "fuel:octane_95": "yes",
        "fuel:regular": "yes",
        "fuel:super": "yes",
        "operator": "Total"
      }
    },
    {
      "type": "Feature",
      "geometry": {
        "type": "Point",
        "coordinates": [
          66.975677,
          24.893615
        ]
      },
      "properties": {
        "id": 253149519,
        "name": "Total",
        "addr:city": "Karachi",
        "addr:country": "PK",
        "addr:postcode": "75020",
        "addr:province": "Sindh",
        "amenity": "fuel",
        "brand": "Total",
        "brand:wikidata": "Q154037"
      }
    },
    {
      "type": "Feature",
      "geometry": {
        "type": "Point",
        "coordinates": [
          66.9631744,
          24.904138600000003
        ]
      },
      "properties": {
        "id": 253149732,
        "name": "ٹوٹل",
        "addr:city": "Karachi",
        "addr:postcode": "75020",
        "addr:street": "Karachi Bypass",
        "amenity": "fuel",
        "brand": "Total",
        "brand:ar": "طوطال",
        "brand:en": "Total",
        "brand:ur": "ٹوٹل",
        "brand:wikidata": "Q154037",
        "brand:wikipedia": "ar:طوطال",
        "brand:wikipedia:ar": "طوطال",
        "name:ar": "طوطال",
        "name:en": "Total",
        "name:ur": "ٹوٹل",
        "operator": "ٹوٹل پارکو",
        "operator:ar": "طوطال باركو",
        "operator:en": "Total Parco",
        "operator:ur": "ٹوٹل پارکو",
        "operator:website": "https://www.totalparco.com.pk/",
        "operator:wikidata": "Q85810269"
      }
    },
    {
      "type": "Feature",
      "geometry": {
        "type": "Point",
        "coordinates": [
          73.2293815,
          31.4807978
        ]
      },
      "properties": {
        "id": 253430375,
        "name": "پاکستان اسٹیٹ آئل",
        "addr:city": "فیصل آباد",
        "addr:city:en": "Faisalabad",
        "addr:city:fr": "Faisalabad",
        "addr:city:pa": "ਫ਼ੈਸਲਾਬਾਦ",
        "addr:city:pnb": "فیصل آباد",
        "addr:city:ur": "فیصل آباد",
        "addr:street": "Faisalabad-Sheikhupura-Lahore Road",
        "amenity": "fuel",
        "brand": "پاکستان اسٹیٹ آئل",
        "brand:ar": "النفط الحكومية الباكستانية",
        "brand:ks": "پاکستان اسٹیٹ آئل",
        "brand:ur": "پاکستان اسٹیٹ آئل",
        "brand:wikidata": "Q2741455",
        "brand:wikipedia": "ur:پاکستان اسٹیٹ آئل",
        "brand:wikipedia:ur": "پاکستان اسٹیٹ آئل",
        "name:ar": "النفط الحكومية الباكستانية",
        "name:en": "Pakistan State Oil",
        "name:ks": "پاکستان اسٹیٹ آئل",
        "name:pnb": "پاکستان سٹیٹ آئل",
        "name:sd": "پاڪستان اسٽيٽ آئل",
        "name:ur": "پاکستان اسٹیٹ آئل",
        "short_name": "پی ایس او",
        "short_name:ur": "پی ایس او"
      }
    },
    {
      "type": "Feature",
      "geometry": {
        "type": "Point",
        "coordinates": [
          73.3880685,
          31.3242645
        ]
      },
      "properties": {
        "id": 253503146,
        "name": "Unnamed",
        "amenity": "fuel",
        "created_by": "Potlatch 0.7b"
      }
    },
    {
      "type": "Feature",
      "geometry": {
        "type": "Point",
        "coordinates": [
          73.16798150000001,
          31.200243000000004
        ]
      },
      "properties": {
        "id": 253505985,
        "name": "Unnamed",
        "amenity": "fuel",
        "created_by": "Potlatch 0.7b",
        "wheelchair": "yes"
      }
    },
    {
      "type": "Feature",
      "geometry": {
        "type": "Point",
        "coordinates": [
          73.0734333,
          33.7196379
        ]
      },
      "properties": {
        "id": 254620873,
        "name": "پاکستان اسٹیٹ آئل",
        "addr:city": "اسلام آباد",
        "addr:city:ar": "إسلام آباد",
        "addr:city:ks": "اِسلام آبادٖ",
        "addr:city:pnb": "اسلام آباد",
        "addr:city:ps": "اسلام آباد",
        "addr:city:sd": "اسلام آباد",
        "addr:city:ur": "اسلام آباد",
        "addr:street": "Jinnah Avenue",
        "amenity": "fuel",
        "brand": "پاکستان اسٹیٹ آئل",
        "brand:ar": "النفط الحكومية الباكستانية",
        "brand:ks": "پاکستان اسٹیٹ آئل",
        "brand:ur": "پاکستان اسٹیٹ آئل",
        "brand:wikidata": "Q2741455",
        "brand:wikipedia": "ur:پاکستان اسٹیٹ آئل",
        "brand:wikipedia:ur": "پاکستان اسٹیٹ آئل",
        "name:ar": "النفط الحكومية الباكستانية",
        "name:en": "Pakistan State Oil",
        "name:ks": "پاکستان اسٹیٹ آئل",
        "name:pnb": "پاکستان سٹیٹ آئل",
        "name:sd": "پاڪستان اسٽيٽ آئل",
        "name:ur": "پاکستان اسٹیٹ آئل",
        "short_name": "پی ایس او",
        "short_name:ur": "پی ایس او"
      }
    },
    {
      "type": "Feature",
      "geometry": {
        "type": "Point",
        "coordinates": [
          73.0785384,
          33.731500800000006
        ]
      },
      "properties": {
        "id": 254624357,
        "name": "شیل",
        "addr:city": "اسلام آباد",
        "addr:city:ar": "إسلام آباد",
        "addr:city:ks": "اِسلام آبادٖ",
        "addr:city:pnb": "اسلام آباد",
        "addr:city:ps": "اسلام آباد",
        "addr:city:sd": "اسلام آباد",
        "addr:city:ur": "اسلام آباد",
        "addr:street": "School Road",
        "amenity": "fuel",
        "brand": "شیل",
        "brand:ar": "شل",
        "brand:ur": "شیل",
        "brand:wikidata": "Q154950",
        "brand:wikipedia": "ur:رائل دٹچ شیل",
        "brand:wikipedia:ar": "رويال داتش شل",
        "brand:wikipedia:ur": "رائل دٹچ شیل",
        "fuel:lpg": "yes",
        "name:ar": "شل",
        "name:en": "Shell",
        "name:fa": "شل",
        "name:pa": "ਸ਼ੈਲ",
        "name:ur": "شیل"
      }
    },
    {
      "type": "Feature",
      "geometry": {
        "type": "Point",
        "coordinates": [
          73.05455090000001,
          33.7204999
        ]
      },
      "properties": {
        "id": 254667492,
        "name": "Caltex",
        "addr:city": "اسلام آباد",
        "addr:city:ar": "إسلام آباد",
        "addr:city:ks": "اِسلام آبادٖ",
        "addr:city:pnb": "اسلام آباد",
        "addr:city:ps": "اسلام آباد",
        "addr:city:sd": "اسلام آباد",
        "addr:city:ur": "اسلام آباد",
        "addr:street": "College Road",
        "amenity": "fuel",
        "brand": "شیل",
        "brand:ar": "شل",
        "brand:ur": "شیل",
        "brand:wikidata": "Q154950",
        "brand:wikipedia": "ur:رائل دٹچ شیل",
        "brand:wikipedia:ar": "رويال داتش شل",
        "brand:wikipedia:ur": "رائل دٹچ شیل",
        "check_date": "2025-12-07",
        "name:ar": "شل",
        "name:en": "Caltex",
        "name:fa": "شل",
        "name:pa": "ਸ਼ੈਲ",
        "name:ur": "شیل"
      }
    },
    {
      "type": "Feature",
      "geometry": {
        "type": "Point",
        "coordinates": [
          73.0616763,
          33.598928
        ]
      },
      "properties": {
        "id": 254767279,
        "name": "شیل",
        "addr:city": "راولپنڈی",
        "addr:city:en": "Rawalpindi",
        "addr:city:fr": "Rawalpindi",
        "addr:city:pa": "ਰਾਵਲਪਿੰਡੀ",
        "addr:city:pnb": "راولپنڈی",
        "addr:city:ur": "راولپنڈی",
        "addr:street": "Murree Road",
        "amenity": "fuel",
        "brand": "شیل",
        "brand:ar": "شل",
        "brand:ur": "شیل",
        "brand:wikidata": "Q154950",
        "brand:wikipedia": "ur:رائل دٹچ شیل",
        "brand:wikipedia:ar": "رويال داتش شل",
        "brand:wikipedia:ur": "رائل دٹچ شیل",
        "name:ar": "شل",
        "name:en": "Shell",
        "name:fa": "شل",
        "name:pa": "ਸ਼ੈਲ",
        "name:ur": "شیل"
      }
    },
    {
      "type": "Feature",
      "geometry": {
        "type": "Point",
        "coordinates": [
          73.0593357,
          33.5913516
        ]
      },
      "properties": {
        "id": 255558613,
        "name": "شیل",
        "amenity": "fuel",
        "brand": "شیل",
        "brand:ar": "شل",
        "brand:ur": "شیل",
        "brand:wikidata": "Q154950",
        "brand:wikipedia": "ur:رائل دٹچ شیل",
        "brand:wikipedia:ar": "رويال داتش شل",
        "brand:wikipedia:ur": "رائل دٹچ شیل",
        "fuel:diesel": "yes",
        "fuel:e85": "yes",
        "fuel:octane_91": "yes",
        "fuel:octane_95": "yes",
        "name:ar": "شل",
        "name:en": "Shell",
        "name:fa": "شل",
        "name:pa": "ਸ਼ੈਲ",
        "name:ur": "شیل"
      }
    },
    {
      "type": "Feature",
      "geometry": {
        "type": "Point",
        "coordinates": [
          73.0918462,
          33.7091561
        ]
      },
      "properties": {
        "id": 255939381,
        "name": "شیل",
        "addr:city": "اسلام آباد",
        "addr:city:ar": "إسلام آباد",
        "addr:city:ks": "اِسلام آبادٖ",
        "addr:city:pnb": "اسلام آباد",
        "addr:city:ps": "اسلام آباد",
        "addr:city:sd": "اسلام آباد",
        "addr:city:ur": "اسلام آباد",
        "addr:street": "Khayaban-e-Suhrwardy",
        "amenity": "fuel",
        "brand": "شیل",
        "brand:ar": "شل",
        "brand:ur": "شیل",
        "brand:wikidata": "Q154950",
        "brand:wikipedia": "ur:رائل دٹچ شیل",
        "brand:wikipedia:ar": "رويال داتش شل",
        "brand:wikipedia:ur": "رائل دٹچ شیل",
        "name:ar": "شل",
        "name:en": "Shell",
        "name:fa": "شل",
        "name:pa": "ਸ਼ੈਲ",
        "name:ur": "شیل"
      }
    },
    {
      "type": "Feature",
      "geometry": {
        "type": "Point",
        "coordinates": [
          73.06542270000001,
          33.607826900000006
        ]
      },
      "properties": {
        "id": 255951322,
        "name": "Unnamed",
        "amenity": "fuel",
        "fuel:cng": "yes"
      }
    },
    {
      "type": "Feature",
      "geometry": {
        "type": "Point",
        "coordinates": [
          72.82999910000001,
          33.6994423
        ]
      },
      "properties": {
        "id": 260064429,
        "name": "Unnamed",
        "amenity": "fuel",
        "created_by": "Potlatch 0.8b"
      }
    },
    {
      "type": "Feature",
      "geometry": {
        "type": "Point",
        "coordinates": [
          72.83535490000001,
          33.765511800000006
        ]
      },
      "properties": {
        "id": 260066730,
        "name": "Unnamed",
        "amenity": "fuel",
        "created_by": "Potlatch 0.8b"
      }
    },
    {
      "type": "Feature",
      "geometry": {
        "type": "Point",
        "coordinates": [
          72.8623058,
          33.7716979
        ]
      },
      "properties": {
        "id": 260067073,
        "name": "Unnamed",
        "amenity": "fuel",
        "created_by": "Potlatch 0.8b"
      }
    },
    {
      "type": "Feature",
      "geometry": {
        "type": "Point",
        "coordinates": [
          72.73197760000001,
          33.760219500000005
        ]
      },
      "properties": {
        "id": 263407850,
        "name": "Shell Petrol pump",
        "amenity": "fuel"
      }
    },
    {
      "type": "Feature",
      "geometry": {
        "type": "Point",
        "coordinates": [
          72.6434038,
          33.5380126
        ]
      },
      "properties": {
        "id": 264992121,
        "name": "Unnamed",
        "amenity": "fuel",
        "created_by": "Potlatch 0.9a"
      }
    },
    {
      "type": "Feature",
      "geometry": {
        "type": "Point",
        "coordinates": [
          73.0526497,
          33.659400600000005
        ]
      },
      "properties": {
        "id": 266492439,
        "name": "Unnamed",
        "amenity": "fuel",
        "fuel:cng": "yes",
        "is_in": "I-9, Islamabad"
      }
    },
    {
      "type": "Feature",
      "geometry": {
        "type": "Point",
        "coordinates": [
          74.40087940000001,
          31.475876500000002
        ]
      },
      "properties": {
        "id": 271322237,
        "name": "Unnamed",
        "amenity": "fuel",
        "created_by": "Potlatch 0.9c"
      }
    },
    {
      "type": "Feature",
      "geometry": {
        "type": "Point",
        "coordinates": [
          74.3803489,
          31.467727200000002
        ]
      },
      "properties": {
        "id": 271644021,
        "name": "Unnamed",
        "amenity": "fuel",
        "created_by": "Potlatch 0.9c"
      }
    },
    {
      "type": "Feature",
      "geometry": {
        "type": "Point",
        "coordinates": [
          74.3861562,
          31.506070800000003
        ]
      },
      "properties": {
        "id": 272338594,
        "name": "Unnamed",
        "amenity": "fuel",
        "created_by": "Potlatch 0.9c"
      }
    },
    {
      "type": "Feature",
      "geometry": {
        "type": "Point",
        "coordinates": [
          74.37591660000001,
          31.530165200000003
        ]
      },
      "properties": {
        "id": 272343625,
        "name": "پاکستان اسٹیٹ آئل",
        "amenity": "fuel",
        "brand": "پاکستان اسٹیٹ آئل",
        "brand:ar": "النفط الحكومية الباكستانية",
        "brand:ks": "پاکستان اسٹیٹ آئل",
        "brand:ur": "پاکستان اسٹیٹ آئل",
        "brand:wikidata": "Q2741455",
        "brand:wikipedia": "ur:پاکستان اسٹیٹ آئل",
        "building": "yes",
        "name:ar": "النفط الحكومية الباكستانية",
        "name:ks": "پاکستان اسٹیٹ آئل",
        "name:pnb": "پاکستان سٹیٹ آئل",
        "name:sd": "پاڪستان اسٽيٽ آئل",
        "name:ur": "پاکستان اسٹیٹ آئل",
        "shop": "fuel",
        "short_name": "پی ایس او",
        "short_name:ur": "پی ایس او"
      }
    },
    {
      "type": "Feature",
      "geometry": {
        "type": "Point",
        "coordinates": [
          74.3798562,
          31.522395300000003
        ]
      },
      "properties": {
        "id": 272343968,
        "name": "Unnamed",
        "amenity": "fuel",
        "created_by": "Potlatch 0.9c"
      }
    },
    {
      "type": "Feature",
      "geometry": {
        "type": "Point",
        "coordinates": [
          74.3816426,
          31.5191319
        ]
      },
      "properties": {
        "id": 272344085,
        "name": "Unnamed",
        "amenity": "fuel"
      }
    },
    {
      "type": "Feature",
      "geometry": {
        "type": "Point",
        "coordinates": [
          74.3682433,
          31.521232
        ]
      },
      "properties": {
        "id": 272346022,
        "name": "Shell petrol pump",
        "amenity": "fuel",
        "created_by": "Potlatch 0.9c",
        "name:en": "Shell petrol pump"
      }
    },
    {
      "type": "Feature",
      "geometry": {
        "type": "Point",
        "coordinates": [
          74.37225160000001,
          31.501848300000002
        ]
      },
      "properties": {
        "id": 272346190,
        "name": "پاکستان اسٹیٹ آئل",
        "addr:street": "Ali Zeb Road",
        "amenity": "fuel",
        "brand": "پاکستان اسٹیٹ آئل",
        "brand:ar": "النفط الحكومية الباكستانية",
        "brand:ks": "پاکستان اسٹیٹ آئل",
        "brand:ur": "پاکستان اسٹیٹ آئل",
        "brand:wikidata": "Q2741455",
        "brand:wikipedia": "ur:پاکستان اسٹیٹ آئل",
        "brand:wikipedia:ur": "پاکستان اسٹیٹ آئل",
        "name:ar": "النفط الحكومية الباكستانية",
        "name:en": "Pakistan State Oil",
        "name:ks": "پاکستان اسٹیٹ آئل",
        "name:pnb": "پاکستان سٹیٹ آئل",
        "name:sd": "پاڪستان اسٽيٽ آئل",
        "name:ur": "پاکستان اسٹیٹ آئل",
        "short_name": "پی ایس او",
        "short_name:ur": "پی ایس او"
      }
    },
    {
      "type": "Feature",
      "geometry": {
        "type": "Point",
        "coordinates": [
          74.3253966,
          31.519916300000002
        ]
      },
      "properties": {
        "id": 272369604,
        "name": "Unnamed",
        "amenity": "fuel"
      }
    },
    {
      "type": "Feature",
      "geometry": {
        "type": "Point",
        "coordinates": [
          74.32638370000001,
          31.5590146
        ]
      },
      "properties": {
        "id": 272382057,
        "name": "Unnamed",
        "amenity": "fuel",
        "created_by": "Potlatch 0.9c"
      }
    },
    {
      "type": "Feature",
      "geometry": {
        "type": "Point",
        "coordinates": [
          74.35401870000001,
          31.474352500000002
        ]
      },
      "properties": {
        "id": 272435699,
        "name": "شیل",
        "amenity": "fuel",
        "brand": "شیل",
        "brand:ar": "شل",
        "brand:ur": "شیل",
        "brand:wikidata": "Q154950",
        "brand:wikipedia": "ur:رائل دٹچ شیل",
        "brand:wikipedia:ar": "رويال داتش شل",
        "brand:wikipedia:ur": "رائل دٹچ شیل",
        "name:ar": "شل",
        "name:en": "Shell",
        "name:fa": "شل",
        "name:pa": "ਸ਼ੈਲ",
        "name:ur": "شیل"
      }
    },
    {
      "type": "Feature",
      "geometry": {
        "type": "Point",
        "coordinates": [
          74.37862150000001,
          31.5286943
        ]
      },
      "properties": {
        "id": 273688304,
        "name": "Unnamed",
        "amenity": "fuel"
      }
    },
    {
      "type": "Feature",
      "geometry": {
        "type": "Point",
        "coordinates": [
          71.73521670000001,
          29.381213300000002
        ]
      },
      "properties": {
        "id": 278190641,
        "name": "Khurram petroleum service",
        "addr:street": "University Road",
        "amenity": "fuel",
        "created_by": "Potlatch 0.9c",
        "name:en": "Khurram petroleum service",
        "opening_hours": "24/7",
        "phone": "0622283577"
      }
    },
    {
      "type": "Feature",
      "geometry": {
        "type": "Point",
        "coordinates": [
          71.90216430000001,
          29.6383684
        ]
      },
      "properties": {
        "id": 278245423,
        "name": "Unnamed",
        "amenity": "fuel",
        "created_by": "Potlatch 0.9c"
      }
    },
    {
      "type": "Feature",
      "geometry": {
        "type": "Point",
        "coordinates": [
          67.3742883,
          24.868667900000002
        ]
      },
      "properties": {
        "id": 283363292,
        "name": "Al Shahbaz Petrol Pump",
        "addr:city": "Karachi",
        "addr:street": "National Highway",
        "amenity": "fuel",
        "opening_hours": "24/7"
      }
    },
    {
      "type": "Feature",
      "geometry": {
        "type": "Point",
        "coordinates": [
          67.1967338,
          24.8727787
        ]
      },
      "properties": {
        "id": 283372430,
        "name": "شیل",
        "addr:city": "Karachi",
        "addr:street": "National Highway",
        "amenity": "fuel",
        "brand": "شیل",
        "brand:ar": "شل",
        "brand:ur": "شیل",
        "brand:wikidata": "Q154950",
        "brand:wikipedia": "ur:رائل دٹچ شیل",
        "brand:wikipedia:ar": "رويال داتش شل",
        "brand:wikipedia:ur": "رائل دٹچ شیل",
        "fuel:octane_95": "yes",
        "fuel:octane_98": "yes",
        "name:ar": "شل",
        "name:en": "Shell",
        "name:fa": "شل",
        "name:pa": "ਸ਼ੈਲ",
        "name:ur": "شیل",
        "phone": "+92 (21) 111-888-222"
      }
    },
    {
      "type": "Feature",
      "geometry": {
        "type": "Point",
        "coordinates": [
          73.02081270000001,
          33.605219600000005
        ]
      },
      "properties": {
        "id": 287731914,
        "name": "Shell+CNG",
        "amenity": "fuel"
      }
    },
    {
      "type": "Feature",
      "geometry": {
        "type": "Point",
        "coordinates": [
          73.0998658,
          33.6051512
        ]
      },
      "properties": {
        "id": 287736734,
        "name": "PSO Shaheen Petrol Pump",
        "amenity": "fuel"
      }
    },
    {
      "type": "Feature",
      "geometry": {
        "type": "Point",
        "coordinates": [
          73.09941470000001,
          33.6047954
        ]
      },
      "properties": {
        "id": 287736910,
        "name": "Vision CNG",
        "amenity": "fuel"
      }
    },
    {
      "type": "Feature",
      "geometry": {
        "type": "Point",
        "coordinates": [
          67.06775730000001,
          24.8975551
        ]
      },
      "properties": {
        "id": 292123020,
        "name": "Unnamed",
        "amenity": "fuel"
      }
    },
    {
      "type": "Feature",
      "geometry": {
        "type": "Point",
        "coordinates": [
          72.91358100000001,
          33.989047600000006
        ]
      },
      "properties": {
        "id": 296410360,
        "name": "Tareen Filling Station",
        "amenity": "fuel"
      }
    },
    {
      "type": "Feature",
      "geometry": {
        "type": "Point",
        "coordinates": [
          72.87920030000001,
          33.980571600000005
        ]
      },
      "properties": {
        "id": 297234118,
        "name": "Usmanzai Filling Station",
        "amenity": "fuel"
      }
    },
    {
      "type": "Feature",
      "geometry": {
        "type": "Point",
        "coordinates": [
          73.07749190000001,
          33.668121600000006
        ]
      },
      "properties": {
        "id": 297645624,
        "name": "Unnamed",
        "amenity": "fuel",
        "check_date": "2024-09-05",
        "fuel:cng": "yes",
        "is_in": "I-8 Markaz, I-8, Islamabad"
      }
    },
    {
      "type": "Feature",
      "geometry": {
        "type": "Point",
        "coordinates": [
          74.7393667,
          35.8345016
        ]
      },
      "properties": {
        "id": 298965078,
        "name": "پاکستان اسٹیٹ آئل",
        "amenity": "fuel",
        "brand": "پاکستان اسٹیٹ آئل",
        "brand:ar": "النفط الحكومية الباكستانية",
        "brand:ks": "پاکستان اسٹیٹ آئل",
        "brand:ur": "پاکستان اسٹیٹ آئل",
        "brand:wikidata": "Q2741455",
        "brand:wikipedia": "ur:پاکستان اسٹیٹ آئل",
        "brand:wikipedia:ur": "پاکستان اسٹیٹ آئل",
        "name:ar": "النفط الحكومية الباكستانية",
        "name:en": "Pakistan State Oil",
        "name:ks": "پاکستان اسٹیٹ آئل",
        "name:pnb": "پاکستان سٹیٹ آئل",
        "name:sd": "پاڪستان اسٽيٽ آئل",
        "name:ur": "پاکستان اسٹیٹ آئل",
        "short_name": "پی ایس او",
        "short_name:ur": "پی ایس او"
      }
    },
    {
      "type": "Feature",
      "geometry": {
        "type": "Point",
        "coordinates": [
          72.94251050000001,
          33.9952405
        ]
      },
      "properties": {
        "id": 299723132,
        "name": "PSO & CNG",
        "amenity": "fuel",
        "created_by": "Potlatch 0.10f"
      }
    },
    {
      "type": "Feature",
      "geometry": {
        "type": "Point",
        "coordinates": [
          72.76264280000001,
          33.879088900000006
        ]
      },
      "properties": {
        "id": 302555543,
        "name": "Shahiya Petrol Pump",
        "amenity": "fuel",
        "created_by": "Potlatch 0.10d",
        "is_in": "Punjab"
      }
    },
    {
      "type": "Feature",
      "geometry": {
        "type": "Point",
        "coordinates": [
          74.4122949,
          31.516306000000004
        ]
      },
      "properties": {
        "id": 305152578,
        "name": "Unnamed",
        "amenity": "fuel",
        "created_by": "Potlatch 0.10e"
      }
    },
    {
      "type": "Feature",
      "geometry": {
        "type": "Point",
        "coordinates": [
          73.08165140000001,
          33.6145389
        ]
      },
      "properties": {
        "id": 305775199,
        "name": "ٹوٹل",
        "amenity": "fuel",
        "brand": "طوطال",
        "brand:ar": "طوطال",
        "brand:en": "Total",
        "brand:ur": "ٹوٹل",
        "brand:wikidata": "Q154037",
        "brand:wikipedia": "ar:طوطال",
        "brand:wikipedia:ar": "طوطال",
        "name:ar": "طوطال",
        "name:en": "Total",
        "name:ur": "ٹوٹل",
        "operator": "ٹوٹل پارکو",
        "operator:ar": "طوطال باركو",
        "operator:en": "Total Parco",
        "operator:ur": "ٹوٹل پارکو",
        "operator:website": "https://www.totalparco.com.pk/",
        "operator:wikidata": "Q85810269"
      }
    },
    {
      "type": "Feature",
      "geometry": {
        "type": "Point",
        "coordinates": [
          73.0754823,
          33.6259924
        ]
      },
      "properties": {
        "id": 305775209,
        "name": "Unnamed",
        "amenity": "fuel"
      }
    },
    {
      "type": "Feature",
      "geometry": {
        "type": "Point",
        "coordinates": [
          71.62181600000001,
          34.0109769
        ]
      },
      "properties": {
        "id": 307372006,
        "name": "Diesel pump",
        "amenity": "fuel",
        "compressed_air": "yes",
        "opening_hours": "Mo-Su 10:00-21:00"
      }
    },
    {
      "type": "Feature",
      "geometry": {
        "type": "Point",
        "coordinates": [
          71.61651810000001,
          34.0066487
        ]
      },
      "properties": {
        "id": 307372551,
        "name": "CNG station",
        "amenity": "fuel"
      }
    },
    {
      "type": "Feature",
      "geometry": {
        "type": "Point",
        "coordinates": [
          71.5685241,
          33.983016400000004
        ]
      },
      "properties": {
        "id": 307372612,
        "name": "Unnamed",
        "amenity": "fuel",
        "compressed_air": "yes"
      }
    },
    {
      "type": "Feature",
      "geometry": {
        "type": "Point",
        "coordinates": [
          71.5442984,
          33.9731869
        ]
      },
      "properties": {
        "id": 307372704,
        "name": "Total Parco",
        "amenity": "fuel",
        "compressed_air": "yes",
        "opening_hours": "Mo-Su 07:00-12:00"
      }
    },
    {
      "type": "Feature",
      "geometry": {
        "type": "Point",
        "coordinates": [
          71.52872350000001,
          33.9632792
        ]
      },
      "properties": {
        "id": 307372727,
        "name": "Unnamed",
        "amenity": "fuel",
        "compressed_air": "no"
      }
    },
    {
      "type": "Feature",
      "geometry": {
        "type": "Point",
        "coordinates": [
          71.4691296,
          33.9754999
        ]
      },
      "properties": {
        "id": 307399157,
        "name": "شیل",
        "amenity": "fuel",
        "brand": "شیل",
        "brand:ar": "شل",
        "brand:ur": "شیل",
        "brand:wikidata": "Q154950",
        "brand:wikipedia": "ur:رائل دٹچ شیل",
        "brand:wikipedia:ar": "رويال داتش شل",
        "brand:wikipedia:ur": "رائل دٹچ شیل",
        "name:ar": "شل",
        "name:en": "Shell",
        "name:fa": "شل",
        "name:pa": "ਸ਼ੈਲ",
        "name:ur": "شیل"
      }
    },
    {
      "type": "Feature",
      "geometry": {
        "type": "Point",
        "coordinates": [
          71.4581871,
          33.974164
        ]
      },
      "properties": {
        "id": 307399293,
        "name": "Unnamed",
        "amenity": "fuel"
      }
    },
    {
      "type": "Feature",
      "geometry": {
        "type": "Point",
        "coordinates": [
          71.4604625,
          33.974285200000004
        ]
      },
      "properties": {
        "id": 307399313,
        "name": "پاکستان اسٹیٹ آئل",
        "amenity": "fuel",
        "brand": "پاکستان اسٹیٹ آئل",
        "brand:ar": "النفط الحكومية الباكستانية",
        "brand:ks": "پاکستان اسٹیٹ آئل",
        "brand:ur": "پاکستان اسٹیٹ آئل",
        "brand:wikidata": "Q2741455",
        "brand:wikipedia": "ur:پاکستان اسٹیٹ آئل",
        "brand:wikipedia:ur": "پاکستان اسٹیٹ آئل",
        "name:ar": "النفط الحكومية الباكستانية",
        "name:en": "Pakistan State Oil",
        "name:ks": "پاکستان اسٹیٹ آئل",
        "name:pnb": "پاکستان سٹیٹ آئل",
        "name:sd": "پاڪستان اسٽيٽ آئل",
        "name:ur": "پاکستان اسٹیٹ آئل",
        "short_name": "پی ایس او",
        "short_name:ur": "پی ایس او"
      }
    },
    {
      "type": "Feature",
      "geometry": {
        "type": "Point",
        "coordinates": [
          71.461656,
          33.974435400000004
        ]
      },
      "properties": {
        "id": 307399328,
        "name": "parco",
        "addr:street": "Ring Road",
        "amenity": "fuel",
        "name:en": "parco"
      }
    },
    {
      "type": "Feature",
      "geometry": {
        "type": "Point",
        "coordinates": [
          71.7415938,
          34.0144212
        ]
      },
      "properties": {
        "id": 307401305,
        "name": "Unnamed",
        "amenity": "fuel"
      }
    },
    {
      "type": "Feature",
      "geometry": {
        "type": "Point",
        "coordinates": [
          71.82834890000001,
          34.0096773
        ]
      },
      "properties": {
        "id": 307507568,
        "name": "Unnamed",
        "amenity": "fuel"
      }
    },
    {
      "type": "Feature",
      "geometry": {
        "type": "Point",
        "coordinates": [
          71.8373335,
          34.009632800000006
        ]
      },
      "properties": {
        "id": 307507642,
        "name": "Unnamed",
        "amenity": "fuel"
      }
    },
    {
      "type": "Feature",
      "geometry": {
        "type": "Point",
        "coordinates": [
          71.8642872,
          34.009469300000006
        ]
      },
      "properties": {
        "id": 307507687,
        "name": "Unnamed",
        "amenity": "fuel"
      }
    },
    {
      "type": "Feature",
      "geometry": {
        "type": "Point",
        "coordinates": [
          72.0941253,
          34.0056707
        ]
      },
      "properties": {
        "id": 307508525,
        "name": "Unnamed",
        "amenity": "fuel"
      }
    },
    {
      "type": "Feature",
      "geometry": {
        "type": "Point",
        "coordinates": [
          71.5535572,
          33.999636900000006
        ]
      },
      "properties": {
        "id": 307637275,
        "name": "Unnamed",
        "amenity": "fuel",
        "created_by": "Potlatch 0.10e"
      }
    },
    {
      "type": "Feature",
      "geometry": {
        "type": "Point",
        "coordinates": [
          71.52409150000001,
          33.981276300000005
        ]
      },
      "properties": {
        "id": 307660089,
        "name": "Unnamed",
        "amenity": "fuel",
        "created_by": "Potlatch 0.10e"
      }
    },
    {
      "type": "Feature",
      "geometry": {
        "type": "Point",
        "coordinates": [
          71.5939604,
          34.072538
        ]
      },
      "properties": {
        "id": 307674921,
        "name": "CNG Station",
        "amenity": "fuel",
        "created_by": "Potlatch 0.10e"
      }
    },
    {
      "type": "Feature",
      "geometry": {
        "type": "Point",
        "coordinates": [
          71.7235047,
          34.1545289
        ]
      },
      "properties": {
        "id": 307688695,
        "name": "Unnamed",
        "amenity": "fuel",
        "created_by": "Potlatch 0.10e"
      }
    },
    {
      "type": "Feature",
      "geometry": {
        "type": "Point",
        "coordinates": [
          71.72994200000001,
          34.1562761
        ]
      },
      "properties": {
        "id": 307688717,
        "name": "Unnamed",
        "amenity": "fuel",
        "created_by": "Potlatch 0.10e"
      }
    },
    {
      "type": "Feature",
      "geometry": {
        "type": "Point",
        "coordinates": [
          71.5140126,
          34.2161829
        ]
      },
      "properties": {
        "id": 310273341,
        "name": "Unnamed",
        "amenity": "fuel",
        "created_by": "Potlatch 0.10f"
      }
    },
    {
      "type": "Feature",
      "geometry": {
        "type": "Point",
        "coordinates": [
          71.5129569,
          34.217432
        ]
      },
      "properties": {
        "id": 310273344,
        "name": "Unnamed",
        "amenity": "fuel",
        "created_by": "Potlatch 0.10f"
      }
    },
    {
      "type": "Feature",
      "geometry": {
        "type": "Point",
        "coordinates": [
          71.5471947,
          34.212996000000004
        ]
      },
      "properties": {
        "id": 310273499,
        "name": "Caltex Filling Station",
        "addr:postcode": "24630",
        "addr:street": "Pir Qila Road",
        "amenity": "fuel",
        "created_by": "Potlatch 0.10f",
        "opening_hours": "Mo-Su 06:00-22:00"
      }
    },
    {
      "type": "Feature",
      "geometry": {
        "type": "Point",
        "coordinates": [
          71.5413053,
          30.358407400000004
        ]
      },
      "properties": {
        "id": 310691118,
        "name": "Unnamed",
        "amenity": "fuel"
      }
    },
    {
      "type": "Feature",
      "geometry": {
        "type": "Point",
        "coordinates": [
          71.3294848,
          30.079106700000004
        ]
      },
      "properties": {
        "id": 310738280,
        "name": "Unnamed",
        "amenity": "fuel"
      }
    },
    {
      "type": "Feature",
      "geometry": {
        "type": "Point",
        "coordinates": [
          71.2207958,
          30.118679600000004
        ]
      },
      "properties": {
        "id": 310868182,
        "name": "Unnamed",
        "amenity": "fuel"
      }
    },
    {
      "type": "Feature",
      "geometry": {
        "type": "Point",
        "coordinates": [
          73.0926532,
          33.6376597
        ]
      },
      "properties": {
        "id": 317751582,
        "name": "Raja jee CNG",
        "amenity": "fuel",
        "created_by": "Potlatch 0.10f"
      }
    },
    {
      "type": "Feature",
      "geometry": {
        "type": "Point",
        "coordinates": [
          73.09442530000001,
          33.5850007
        ]
      },
      "properties": {
        "id": 370863479,
        "name": "شیل",
        "amenity": "fuel",
        "brand": "شیل",
        "brand:ar": "شل",
        "brand:ur": "شیل",
        "brand:wikidata": "Q154950",
        "brand:wikipedia": "ur:رائل دٹچ شیل",
        "brand:wikipedia:ar": "رويال داتش شل",
        "brand:wikipedia:ur": "رائل دٹچ شیل",
        "building": "yes",
        "name:ar": "شل",
        "name:en": "Shell",
        "name:fa": "شل",
        "name:pa": "ਸ਼ੈਲ",
        "name:ur": "شیل"
      }
    },
    {
      "type": "Feature",
      "geometry": {
        "type": "Point",
        "coordinates": [
          74.34761490000001,
          31.503105500000004
        ]
      },
      "properties": {
        "id": 563684372,
        "name": "GO",
        "amenity": "fuel"
      }
    },
    {
      "type": "Feature",
      "geometry": {
        "type": "Point",
        "coordinates": [
          67.0654722,
          24.817683900000002
        ]
      },
      "properties": {
        "id": 596201670,
        "name": "Shell Bahria",
        "addr:city": "Karachi",
        "addr:housenumber": "Phase 7",
        "addr:postcode": "75500",
        "addr:street": "Khayaban e Bahria",
        "amenity": "fuel",
        "brand": "شیل",
        "brand:ar": "شل",
        "brand:en": "Shell",
        "brand:fa": "شل",
        "brand:ur": "شیل",
        "brand:wikipedia:ar": "رويال داتش شل",
        "brand:wikipedia:fa": "رویال داچ شل",
        "brand:wikipedia:ur": "رائل دٹچ شیل",
        "name:en": "Shell",
        "name:ur": "شل",
        "not:brand:wikidata": "Q110716465",
        "operator": "Shell",
        "phone": "+92 (21) 111-888-222",
        "self_service": "no"
      }
    },
    {
      "type": "Feature",
      "geometry": {
        "type": "Point",
        "coordinates": [
          74.3333046,
          31.498062100000002
        ]
      },
      "properties": {
        "id": 617126833,
        "name": "شیل",
        "addr:city": "Lahore",
        "addr:street": "Model Town Underpass",
        "amenity": "fuel",
        "brand": "شیل",
        "brand:ar": "شل",
        "brand:ur": "شیل",
        "brand:wikidata": "Q154950",
        "brand:wikipedia": "ur:رائل دٹچ شیل",
        "brand:wikipedia:ar": "رويال داتش شل",
        "brand:wikipedia:ur": "رائل دٹچ شیل",
        "name:ar": "شل",
        "name:en": "Shell",
        "name:fa": "شل",
        "name:pa": "ਸ਼ੈਲ",
        "name:ur": "شیل",
        "self_service": "no"
      }
    },
    {
      "type": "Feature",
      "geometry": {
        "type": "Point",
        "coordinates": [
          74.6240219,
          36.310266500000004
        ]
      },
      "properties": {
        "id": 746990616,
        "name": "Unnamed",
        "amenity": "fuel"
      }
    },
    {
      "type": "Feature",
      "geometry": {
        "type": "Point",
        "coordinates": [
          72.43283690000001,
          34.044556
        ]
      },
      "properties": {
        "id": 863163240,
        "name": "Energetic CNG",
        "amenity": "fuel",
        "brand": "CNG",
        "fuel:cng": "yes"
      }
    },
    {
      "type": "Feature",
      "geometry": {
        "type": "Point",
        "coordinates": [
          68.27346130000001,
          25.452835200000003
        ]
      },
      "properties": {
        "id": 874868256,
        "name": "Unnamed",
        "amenity": "fuel",
        "building": "yes",
        "source": "Yahoo (hi-res)"
      }
    },
    {
      "type": "Feature",
      "geometry": {
        "type": "Point",
        "coordinates": [
          68.27351660000001,
          25.451558300000002
        ]
      },
      "properties": {
        "id": 874868283,
        "name": "Shakeel CNG",
        "addr:city": "Jamshoro",
        "addr:street": "Indus Highway",
        "amenity": "fuel",
        "source": "Yahoo (hi-res)"
      }
    },
    {
      "type": "Feature",
      "geometry": {
        "type": "Point",
        "coordinates": [
          68.24864090000001,
          25.3905512
        ]
      },
      "properties": {
        "id": 876305193,
        "name": "Unnamed",
        "amenity": "fuel",
        "source": "Yahoo"
      }
    },
    {
      "type": "Feature",
      "geometry": {
        "type": "Point",
        "coordinates": [
          67.060603,
          24.841089900000004
        ]
      },
      "properties": {
        "id": 933036815,
        "name": "ٹوٹل",
        "addr:city": "Karachi",
        "addr:housenumber": "DHA Phase 1",
        "addr:street": "Korangi service road",
        "amenity": "fuel",
        "brand": "طوطال",
        "brand:ar": "طوطال",
        "brand:en": "Total",
        "brand:ur": "ٹوٹل",
        "brand:wikidata": "Q154037",
        "brand:wikipedia": "ar:طوطال",
        "brand:wikipedia:ar": "طوطال",
        "name:ar": "طوطال",
        "name:en": "Total",
        "name:ur": "ٹوٹل",
        "operator": "ٹوٹل پارکو",
        "operator:ar": "طوطال باركو",
        "operator:en": "Total Parco",
        "operator:ur": "ٹوٹل پارکو",
        "operator:website": "https://www.totalparco.com.pk/",
        "operator:wikidata": "Q85810269"
      }
    },
    {
      "type": "Feature",
      "geometry": {
        "type": "Point",
        "coordinates": [
          67.07780310000001,
          24.865712000000002
        ]
      },
      "properties": {
        "id": 933110127,
        "name": "شیل",
        "addr:city": "Karachi",
        "addr:street": "Tipu Sultan Road",
        "amenity": "fuel",
        "brand": "شیل",
        "brand:ar": "شل",
        "brand:ur": "شیل",
        "brand:wikidata": "Q154950",
        "brand:wikipedia": "ur:رائل دٹچ شیل",
        "brand:wikipedia:ar": "رويال داتش شل",
        "brand:wikipedia:ur": "رائل دٹچ شیل",
        "fuel:diesel": "yes",
        "fuel:octane_95": "yes",
        "fuel:octane_98": "yes",
        "name:ar": "شل",
        "name:en": "Shell",
        "name:fa": "شل",
        "name:pa": "ਸ਼ੈਲ",
        "name:ur": "شیل",
        "phone": "+92 (21) 111-888-222"
      }
    },
    {
      "type": "Feature",
      "geometry": {
        "type": "Point",
        "coordinates": [
          67.0844129,
          24.8765375
        ]
      },
      "properties": {
        "id": 973776277,
        "name": "پاکستان اسٹیٹ آئل",
        "addr:city": "Karachi",
        "amenity": "fuel",
        "brand": "پاکستان اسٹیٹ آئل",
        "brand:ar": "النفط الحكومية الباكستانية",
        "brand:ks": "پاکستان اسٹیٹ آئل",
        "brand:ur": "پاکستان اسٹیٹ آئل",
        "brand:wikidata": "Q2741455",
        "brand:wikipedia": "ur:پاکستان اسٹیٹ آئل",
        "brand:wikipedia:ur": "پاکستان اسٹیٹ آئل",
        "fuel:octane_91": "yes",
        "fuel:octane_95": "yes",
        "fuel:octane_98": "yes",
        "name:ar": "النفط الحكومية الباكستانية",
        "name:en": "Pakistan State Oil",
        "name:ks": "پاکستان اسٹیٹ آئل",
        "name:pnb": "پاکستان سٹیٹ آئل",
        "name:sd": "پاڪستان اسٽيٽ آئل",
        "name:ur": "پاکستان اسٹیٹ آئل",
        "short_name": "پی ایس او",
        "short_name:ur": "پی ایس او"
      }
    },
    {
      "type": "Feature",
      "geometry": {
        "type": "Point",
        "coordinates": [
          67.1166364,
          24.900697400000002
        ]
      },
      "properties": {
        "id": 974482678,
        "name": "شیل عسکری 4",
        "addr:city": "Karachi",
        "addr:street": "راشد منہاس روڈ",
        "amenity": "fuel",
        "brand": "شیل",
        "brand:ar": "شل",
        "brand:ur": "شیل",
        "brand:wikidata": "Q154950",
        "brand:wikipedia": "ur:رائل دٹچ شیل",
        "brand:wikipedia:ar": "رويال داتش شل",
        "brand:wikipedia:ur": "رائل دٹچ شیل",
        "fuel:octane_95": "yes",
        "fuel:octane_98": "yes",
        "name:ar": "شل",
        "name:en": "Shell",
        "name:fa": "شل",
        "name:pa": "ਸ਼ੈਲ",
        "name:ur": "شیل",
        "phone": "+92 (21) 111-888-222"
      }
    },
    {
      "type": "Feature",
      "geometry": {
        "type": "Point",
        "coordinates": [
          68.3512953,
          25.3725643
        ]
      },
      "properties": {
        "id": 1096175280,
        "name": "admore",
        "amenity": "fuel"
      }
    },
    {
      "type": "Feature",
      "geometry": {
        "type": "Point",
        "coordinates": [
          68.3581352,
          25.359850100000003
        ]
      },
      "properties": {
        "id": 1096946001,
        "name": "پٹرول پمپ",
        "amenity": "fuel",
        "name:en": "Petrol Pump",
        "name:ur": "پٹرول پمپ"
      }
    },
    {
      "type": "Feature",
      "geometry": {
        "type": "Point",
        "coordinates": [
          68.3415471,
          25.375922300000003
        ]
      },
      "properties": {
        "id": 1096979645,
        "name": "Akbar CNG",
        "addr:city": "حیدرآباد",
        "addr:city:en": "Hyderabad",
        "addr:city:fr": "Hyderâbâd",
        "addr:city:pa": "ਹੈਦਰਾਬਾਦ",
        "addr:city:ur": "حیدرآباد",
        "addr:street": "Autobhan Road",
        "amenity": "fuel"
      }
    },
    {
      "type": "Feature",
      "geometry": {
        "type": "Point",
        "coordinates": [
          68.3313519,
          25.378155800000002
        ]
      },
      "properties": {
        "id": 1096979650,
        "name": "Ansari Shell Petrol Pump",
        "addr:city": "حیدرآباد",
        "addr:city:en": "Hyderabad",
        "addr:city:fr": "Hyderâbâd",
        "addr:city:pa": "ਹੈਦਰਾਬਾਦ",
        "addr:city:ur": "حیدرآباد",
        "addr:street": "National Highway",
        "amenity": "fuel"
      }
    },
    {
      "type": "Feature",
      "geometry": {
        "type": "Point",
        "coordinates": [
          68.3598875,
          25.376008700000003
        ]
      },
      "properties": {
        "id": 1097008810,
        "name": "Unnamed",
        "amenity": "fuel"
      }
    },
    {
      "type": "Feature",
      "geometry": {
        "type": "Point",
        "coordinates": [
          68.35765590000001,
          25.375950500000002
        ]
      },
      "properties": {
        "id": 1097008830,
        "name": "سی این جی",
        "amenity": "fuel",
        "fuel:cng": "yes",
        "name:ar": "غاز طبيعي مضغوط",
        "name:en": "CNG",
        "name:etymology": "سی این جی",
        "name:etymology:wikidata": "Q720050",
        "name:etymology:wikipedia": "ur:سی این جی",
        "name:ur": "سی این جی"
      }
    },
    {
      "type": "Feature",
      "geometry": {
        "type": "Point",
        "coordinates": [
          68.3117119,
          25.3688919
        ]
      },
      "properties": {
        "id": 1097706324,
        "name": "Shell Petrol & Diesel Station",
        "addr:city": "Kotri",
        "addr:street": "National Highway",
        "amenity": "fuel"
      }
    },
    {
      "type": "Feature",
      "geometry": {
        "type": "Point",
        "coordinates": [
          68.5230465,
          25.424012500000003
        ]
      },
      "properties": {
        "id": 1099310547,
        "name": "cng",
        "amenity": "fuel"
      }
    },
    {
      "type": "Feature",
      "geometry": {
        "type": "Point",
        "coordinates": [
          68.3660411,
          25.3936692
        ]
      },
      "properties": {
        "id": 1101168857,
        "name": "Unnamed",
        "amenity": "fuel"
      }
    },
    {
      "type": "Feature",
      "geometry": {
        "type": "Point",
        "coordinates": [
          68.36642470000001,
          25.3856971
        ]
      },
      "properties": {
        "id": 1101290510,
        "name": "Firdous Filling Station",
        "addr:city": "Karachi",
        "addr:street": "THANDI SARAK",
        "amenity": "fuel"
      }
    },
    {
      "type": "Feature",
      "geometry": {
        "type": "Point",
        "coordinates": [
          68.36718730000001,
          25.3867456
        ]
      },
      "properties": {
        "id": 1101290511,
        "name": "POL",
        "amenity": "fuel"
      }
    },
    {
      "type": "Feature",
      "geometry": {
        "type": "Point",
        "coordinates": [
          68.367204,
          25.392899000000003
        ]
      },
      "properties": {
        "id": 1119744103,
        "name": "Unnamed",
        "amenity": "fuel"
      }
    },
    {
      "type": "Feature",
      "geometry": {
        "type": "Point",
        "coordinates": [
          70.21548940000001,
          28.437406000000003
        ]
      },
      "properties": {
        "id": 1145852590,
        "name": "Unnamed",
        "amenity": "fuel"
      }
    },
    {
      "type": "Feature",
      "geometry": {
        "type": "Point",
        "coordinates": [
          70.2638872,
          28.4294432
        ]
      },
      "properties": {
        "id": 1145891542,
        "name": "شیل",
        "amenity": "fuel",
        "brand": "شیل",
        "brand:ar": "شل",
        "brand:ur": "شیل",
        "brand:wikidata": "Q154950",
        "brand:wikipedia": "ur:رائل دٹچ شیل",
        "brand:wikipedia:ar": "رويال داتش شل",
        "brand:wikipedia:ur": "رائل دٹچ شیل",
        "name:ar": "شل",
        "name:en": "Shell",
        "name:fa": "شل",
        "name:pa": "ਸ਼ੈਲ",
        "name:ur": "شیل"
      }
    },
    {
      "type": "Feature",
      "geometry": {
        "type": "Point",
        "coordinates": [
          71.52660610000001,
          34.007026700000004
        ]
      },
      "properties": {
        "id": 1224127544,
        "name": "شیل",
        "amenity": "fuel",
        "brand": "شیل",
        "brand:ar": "شل",
        "brand:ur": "شیل",
        "brand:wikidata": "Q154950",
        "brand:wikipedia": "ur:رائل دٹچ شیل",
        "brand:wikipedia:ar": "رويال داتش شل",
        "brand:wikipedia:ur": "رائل دٹچ شیل",
        "name:ar": "شل",
        "name:en": "Shell",
        "name:fa": "شل",
        "name:pa": "ਸ਼ੈਲ",
        "name:ur": "شیل"
      }
    },
    {
      "type": "Feature",
      "geometry": {
        "type": "Point",
        "coordinates": [
          71.44307110000001,
          33.9942051
        ]
      },
      "properties": {
        "id": 1224404644,
        "name": "پاکستان اسٹیٹ آئل",
        "amenity": "fuel",
        "brand": "پاکستان اسٹیٹ آئل",
        "brand:ar": "پاکستان اسٹیٹ آئل",
        "brand:en": "Pakistan State Oil",
        "brand:ks": "پاکستان اسٹیٹ آئل",
        "brand:pa": "ਪਾਕਸਤਾਨ ਸਟੇਟ ਆਇਲ",
        "brand:pnb": "پاکستان سٹیٹ آئیل",
        "brand:ur": "پاکستان اسٹیٹ آئل",
        "brand:wikidata": "Q2741455",
        "brand:wikipedia": "ur:پاکستان اسٹیٹ آئل",
        "brand:wikipedia:ur": "پاکستان اسٹیٹ آئل",
        "name:ar": "النفط الحكومية الباكستانية",
        "name:en": "Pakistan State Oil",
        "name:ks": "پاکستان اسٹیٹ آئل",
        "name:pa": "ਪਾਕਸਤਾਨ ਸਟੇਟ ਆਇਲ",
        "name:pnb": "پاکستان سٹیٹ آئل",
        "name:sd": "پاڪستان اسٽيٽ آئل",
        "name:ur": "پاکستان اسٹیٹ آئل",
        "short_name": "پی ایس او",
        "short_name:en": "PSO",
        "short_name:ur": "پی ایس او"
      }
    },
    {
      "type": "Feature",
      "geometry": {
        "type": "Point",
        "coordinates": [
          71.4967998,
          34.0002429
        ]
      },
      "properties": {
        "id": 1226391239,
        "name": "Unnamed",
        "amenity": "fuel"
      }
    },
    {
      "type": "Feature",
      "geometry": {
        "type": "Point",
        "coordinates": [
          67.84113020000001,
          29.466589700000004
        ]
      },
      "properties": {
        "id": 1234834268,
        "name": "Unnamed",
        "amenity": "fuel",
        "ele": "142.16",
        "source": "GPS"
      }
    },
    {
      "type": "Feature",
      "geometry": {
        "type": "Point",
        "coordinates": [
          70.5382629,
          28.7953642
        ]
      },
      "properties": {
        "id": 1234836982,
        "name": "Unnamed",
        "amenity": "fuel",
        "ele": "74.63",
        "source": "GPS"
      }
    },
    {
      "type": "Feature",
      "geometry": {
        "type": "Point",
        "coordinates": [
          66.99483670000001,
          30.178613700000003
        ]
      },
      "properties": {
        "id": 1236647241,
        "name": "Unnamed",
        "amenity": "fuel",
        "ele": "1674.01",
        "source": "GPS"
      }
    },
    {
      "type": "Feature",
      "geometry": {
        "type": "Point",
        "coordinates": [
          74.30309670000001,
          31.538349000000004
        ]
      },
      "properties": {
        "id": 1328229005,
        "name": "Unnamed",
        "amenity": "fuel",
        "highway": "bus_stop"
      }
    },
    {
      "type": "Feature",
      "geometry": {
        "type": "Point",
        "coordinates": [
          74.2754326,
          31.616205800000003
        ]
      },
      "properties": {
        "id": 1336460118,
        "name": "ٹوٹل",
        "addr:city": "Shahdara",
        "addr:street": "Jaranwala - Lahore Road",
        "amenity": "fuel",
        "brand": "طوطال",
        "brand:ar": "طوطال",
        "brand:en": "Total",
        "brand:ur": "ٹوٹل",
        "brand:wikidata": "Q154037",
        "brand:wikipedia": "ar:طوطال",
        "brand:wikipedia:ar": "طوطال",
        "name:ar": "طوطال",
        "name:en": "Total",
        "name:ur": "ٹوٹل",
        "operator": "ٹوٹل پارکو",
        "operator:ar": "طوطال باركو",
        "operator:en": "Total Parco",
        "operator:ur": "ٹوٹل پارکو",
        "operator:website": "https://www.totalparco.com.pk/",
        "operator:wikidata": "Q85810269"
      }
    },
    {
      "type": "Feature",
      "geometry": {
        "type": "Point",
        "coordinates": [
          73.10498190000001,
          33.568196300000004
        ]
      },
      "properties": {
        "id": 1362714217,
        "name": "CNG Station",
        "amenity": "fuel"
      }
    },
    {
      "type": "Feature",
      "geometry": {
        "type": "Point",
        "coordinates": [
          73.10515360000001,
          33.573506300000005
        ]
      },
      "properties": {
        "id": 1362714225,
        "name": "Unnamed",
        "amenity": "fuel",
        "fuel:cng": "yes"
      }
    },
    {
      "type": "Feature",
      "geometry": {
        "type": "Point",
        "coordinates": [
          73.07504800000001,
          33.5881746
        ]
      },
      "properties": {
        "id": 1363495834,
        "name": "ٹوٹل",
        "amenity": "fuel",
        "brand": "طوطال",
        "brand:ar": "طوطال",
        "brand:en": "Total",
        "brand:ur": "ٹوٹل",
        "brand:wikidata": "Q154037",
        "brand:wikipedia": "ar:طوطال",
        "brand:wikipedia:ar": "طوطال",
        "fuel:diesel": "yes",
        "fuel:octane_97": "yes",
        "name:ar": "طوطال",
        "name:en": "Total",
        "name:ur": "ٹوٹل",
        "operator": "ٹوٹل پارکو",
        "operator:ar": "طوطال باركو",
        "operator:en": "Total Parco",
        "operator:ur": "ٹوٹل پارکو",
        "operator:website": "https://www.totalparco.com.pk/",
        "operator:wikidata": "Q85810269"
      }
    },
    {
      "type": "Feature",
      "geometry": {
        "type": "Point",
        "coordinates": [
          73.081693,
          33.6148425
        ]
      },
      "properties": {
        "id": 1365161277,
        "name": "ٹوٹل",
        "amenity": "fuel",
        "brand": "طوطال",
        "brand:ar": "طوطال",
        "brand:en": "Total",
        "brand:ur": "ٹوٹل",
        "brand:wikidata": "Q154037",
        "brand:wikipedia": "ar:طوطال",
        "brand:wikipedia:ar": "طوطال",
        "name:ar": "طوطال",
        "name:en": "Total",
        "name:ur": "ٹوٹل",
        "operator": "ٹوٹل پارکو",
        "operator:ar": "طوطال باركو",
        "operator:en": "Total Parco",
        "operator:ur": "ٹوٹل پارکو",
        "operator:website": "https://www.totalparco.com.pk/",
        "operator:wikidata": "Q85810269"
      }
    },
    {
      "type": "Feature",
      "geometry": {
        "type": "Point",
        "coordinates": [
          73.1010701,
          33.5531244
        ]
      },
      "properties": {
        "id": 1365195160,
        "name": "Shaheen CNG",
        "amenity": "fuel"
      }
    },
    {
      "type": "Feature",
      "geometry": {
        "type": "Point",
        "coordinates": [
          73.10454440000001,
          33.556720500000004
        ]
      },
      "properties": {
        "id": 1365195161,
        "name": "سی این جی",
        "amenity": "fuel",
        "fuel:cng": "yes",
        "name:ar": "غاز طبيعي مضغوط",
        "name:en": "CNG",
        "name:etymology": "سی این جی",
        "name:etymology:wikidata": "Q720050",
        "name:etymology:wikipedia": "ur:سی این جی",
        "name:ur": "سی این جی"
      }
    },
    {
      "type": "Feature",
      "geometry": {
        "type": "Point",
        "coordinates": [
          67.08989840000001,
          24.9233647
        ]
      },
      "properties": {
        "id": 1410491669,
        "name": "CNG filling station",
        "addr:city": "Karachi",
        "addr:street": "Gulshan Chowrangi Fly Over",
        "amenity": "fuel"
      }
    },
    {
      "type": "Feature",
      "geometry": {
        "type": "Point",
        "coordinates": [
          73.09738460000001,
          33.5830592
        ]
      },
      "properties": {
        "id": 1411921096,
        "name": "Tayyab CNG Station",
        "amenity": "fuel"
      }
    },
    {
      "type": "Feature",
      "geometry": {
        "type": "Point",
        "coordinates": [
          73.0953697,
          33.58408
        ]
      },
      "properties": {
        "id": 1412374750,
        "name": "Unnamed",
        "amenity": "fuel",
        "fuel:cng": "yes"
      }
    },
    {
      "type": "Feature",
      "geometry": {
        "type": "Point",
        "coordinates": [
          73.09657250000001,
          33.5830757
        ]
      },
      "properties": {
        "id": 1412374757,
        "name": "Unnamed",
        "amenity": "fuel",
        "fuel:cng": "yes"
      }
    },
    {
      "type": "Feature",
      "geometry": {
        "type": "Point",
        "coordinates": [
          73.0940479,
          33.5848651
        ]
      },
      "properties": {
        "id": 1412374765,
        "name": "Unnamed",
        "amenity": "fuel",
        "fuel:cng": "yes"
      }
    },
    {
      "type": "Feature",
      "geometry": {
        "type": "Point",
        "coordinates": [
          73.0485105,
          33.595716
        ]
      },
      "properties": {
        "id": 1414324521,
        "name": "PSO filling Station",
        "amenity": "fuel",
        "brand": "PSO",
        "not:brand:wikidata": "Q2741455"
      }
    },
    {
      "type": "Feature",
      "geometry": {
        "type": "Point",
        "coordinates": [
          73.10269650000001,
          33.556929600000004
        ]
      },
      "properties": {
        "id": 1420018685,
        "name": "سی این جی",
        "amenity": "fuel",
        "fuel:cng": "yes",
        "name:ar": "غاز طبيعي مضغوط",
        "name:en": "CNG",
        "name:etymology": "سی این جی",
        "name:etymology:wikidata": "Q720050",
        "name:etymology:wikipedia": "ur:سی این جی",
        "name:ur": "سی این جی"
      }
    },
    {
      "type": "Feature",
      "geometry": {
        "type": "Point",
        "coordinates": [
          73.10235320000001,
          33.5561428
        ]
      },
      "properties": {
        "id": 1420018687,
        "name": "سی این جی",
        "amenity": "fuel",
        "fuel:cng": "yes",
        "name:ar": "غاز طبيعي مضغوط",
        "name:en": "CNG",
        "name:etymology": "سی این جی",
        "name:etymology:wikidata": "Q720050",
        "name:etymology:wikipedia": "ur:سی این جی",
        "name:ur": "سی این جی"
      }
    },
    {
      "type": "Feature",
      "geometry": {
        "type": "Point",
        "coordinates": [
          73.1022298,
          33.556943000000004
        ]
      },
      "properties": {
        "id": 1420479751,
        "name": "سی این جی",
        "amenity": "fuel",
        "fuel:cng": "yes",
        "name:ar": "غاز طبيعي مضغوط",
        "name:en": "CNG",
        "name:etymology": "سی این جی",
        "name:etymology:wikidata": "Q720050",
        "name:etymology:wikipedia": "ur:سی این جی",
        "name:ur": "سی این جی"
      }
    },
    {
      "type": "Feature",
      "geometry": {
        "type": "Point",
        "coordinates": [
          73.1474469,
          33.587093800000005
        ]
      },
      "properties": {
        "id": 1548376179,
        "name": "KORAL CNG",
        "amenity": "fuel"
      }
    },
    {
      "type": "Feature",
      "geometry": {
        "type": "Point",
        "coordinates": [
          73.1476662,
          33.586745300000004
        ]
      },
      "properties": {
        "id": 1548376189,
        "name": "Kaleem CNG",
        "amenity": "fuel"
      }
    },
    {
      "type": "Feature",
      "geometry": {
        "type": "Point",
        "coordinates": [
          68.3567278,
          25.374980500000003
        ]
      },
      "properties": {
        "id": 1560312999,
        "name": "سی این جی",
        "addr:city": "حیدرآباد",
        "addr:city:en": "Hyderabad",
        "addr:city:fr": "Hyderâbâd",
        "addr:city:pa": "ਹੈਦਰਾਬਾਦ",
        "addr:city:ur": "حیدرآباد",
        "addr:street": "BRIDGE",
        "amenity": "fuel",
        "fuel:cng": "yes",
        "name:ar": "غاز طبيعي مضغوط",
        "name:en": "CNG",
        "name:etymology": "سی این جی",
        "name:etymology:wikidata": "Q720050",
        "name:etymology:wikipedia": "ur:سی این جی",
        "name:ur": "سی این جی"
      }
    },
    {
      "type": "Feature",
      "geometry": {
        "type": "Point",
        "coordinates": [
          73.9001539,
          33.514887800000004
        ]
      },
      "properties": {
        "id": 1631123223,
        "name": "PETROL PUMP",
        "amenity": "fuel"
      }
    },
    {
      "type": "Feature",
      "geometry": {
        "type": "Point",
        "coordinates": [
          68.3840196,
          25.439597400000004
        ]
      },
      "properties": {
        "id": 1657198497,
        "name": "Hascol  Petrol Pump",
        "addr:city": "hyderabad",
        "addr:street": "National Highway",
        "amenity": "fuel"
      }
    },
    {
      "type": "Feature",
      "geometry": {
        "type": "Point",
        "coordinates": [
          68.3840749,
          25.438927300000003
        ]
      },
      "properties": {
        "id": 1657198516,
        "name": "پٹرول پمپ",
        "addr:street": "National Highway",
        "amenity": "fuel",
        "name:en": "Petrol Pump",
        "name:ur": "پٹرول پمپ"
      }
    },
    {
      "type": "Feature",
      "geometry": {
        "type": "Point",
        "coordinates": [
          74.3673023,
          31.578280700000004
        ]
      },
      "properties": {
        "id": 1664047655,
        "name": "Gastec",
        "amenity": "fuel"
      }
    },
    {
      "type": "Feature",
      "geometry": {
        "type": "Point",
        "coordinates": [
          73.1330695,
          33.633332300000006
        ]
      },
      "properties": {
        "id": 1668280625,
        "name": "Attock Petrol Pump",
        "addr:street": "Lehtrar Road",
        "amenity": "fuel",
        "brand": "Attock",
        "fuel:biodiesel": "no",
        "fuel:cng": "yes",
        "fuel:diesel": "yes",
        "fuel:octane_97": "yes",
        "opening_hours": "24/7",
        "operator": "Attock",
        "website": "https://apl.com.pk/"
      }
    },
    {
      "type": "Feature",
      "geometry": {
        "type": "Point",
        "coordinates": [
          73.16354530000001,
          33.6437206
        ]
      },
      "properties": {
        "id": 1670684196,
        "name": "Zic HTL Fuel Station, Taramri",
        "amenity": "fuel"
      }
    },
    {
      "type": "Feature",
      "geometry": {
        "type": "Point",
        "coordinates": [
          73.1646504,
          33.644037600000004
        ]
      },
      "properties": {
        "id": 1670684205,
        "name": "Irfan CNG",
        "amenity": "fuel",
        "fuel:biodiesel": "no",
        "fuel:biogas": "no",
        "fuel:cng": "yes",
        "fuel:diesel": "no"
      }
    },
    {
      "type": "Feature",
      "geometry": {
        "type": "Point",
        "coordinates": [
          73.2002681,
          33.6429087
        ]
      },
      "properties": {
        "id": 1671449720,
        "name": "HASCOL Petrol Pump",
        "amenity": "fuel"
      }
    },
    {
      "type": "Feature",
      "geometry": {
        "type": "Point",
        "coordinates": [
          73.07610580000001,
          33.6342061
        ]
      },
      "properties": {
        "id": 1672924370,
        "name": "Unique CNG Station",
        "addr:city": "راولپنڈی",
        "addr:city:en": "Rawalpindi",
        "addr:city:fr": "Rawalpindi",
        "addr:city:pa": "ਰਾਵਲਪਿੰਡੀ",
        "addr:city:pnb": "راولپنڈی",
        "addr:city:ur": "راولپنڈی",
        "addr:street": "Sadiqabad Road",
        "amenity": "fuel"
      }
    },
    {
      "type": "Feature",
      "geometry": {
        "type": "Point",
        "coordinates": [
          73.07644330000001,
          33.6341211
        ]
      },
      "properties": {
        "id": 1672924393,
        "name": "پاکستان اسٹیٹ آئل",
        "addr:city": "راولپنڈی",
        "addr:city:en": "Rawalpindi",
        "addr:city:fr": "Rawalpindi",
        "addr:city:pa": "ਰਾਵਲਪਿੰਡੀ",
        "addr:city:pnb": "راولپنڈی",
        "addr:city:ur": "راولپنڈی",
        "addr:street": "Sadiqabad Road",
        "amenity": "fuel",
        "brand": "پاکستان اسٹیٹ آئل",
        "brand:ar": "النفط الحكومية الباكستانية",
        "brand:ks": "پاکستان اسٹیٹ آئل",
        "brand:ur": "پاکستان اسٹیٹ آئل",
        "brand:wikidata": "Q2741455",
        "brand:wikipedia": "ur:پاکستان اسٹیٹ آئل",
        "brand:wikipedia:ur": "پاکستان اسٹیٹ آئل",
        "name:ar": "النفط الحكومية الباكستانية",
        "name:en": "Pakistan State Oil",
        "name:ks": "پاکستان اسٹیٹ آئل",
        "name:pnb": "پاکستان سٹیٹ آئل",
        "name:sd": "پاڪستان اسٽيٽ آئل",
        "name:ur": "پاکستان اسٹیٹ آئل",
        "short_name": "پی ایس او",
        "short_name:ur": "پی ایس او"
      }
    },
    {
      "type": "Feature",
      "geometry": {
        "type": "Point",
        "coordinates": [
          73.19421170000001,
          33.643873400000004
        ]
      },
      "properties": {
        "id": 1673481685,
        "name": "Alipur CNG",
        "amenity": "fuel"
      }
    },
    {
      "type": "Feature",
      "geometry": {
        "type": "Point",
        "coordinates": [
          73.1696069,
          33.644766800000006
        ]
      },
      "properties": {
        "id": 1673481789,
        "name": "Millat CNG",
        "amenity": "fuel"
      }
    },
    {
      "type": "Feature",
      "geometry": {
        "type": "Point",
        "coordinates": [
          73.196048,
          33.6426856
        ]
      },
      "properties": {
        "id": 1673481794,
        "name": "پاکستان اسٹیٹ آئل",
        "amenity": "fuel",
        "brand": "پاکستان اسٹیٹ آئل",
        "brand:ar": "النفط الحكومية الباكستانية",
        "brand:ks": "پاکستان اسٹیٹ آئل",
        "brand:ur": "پاکستان اسٹیٹ آئل",
        "brand:wikidata": "Q2741455",
        "brand:wikipedia": "ur:پاکستان اسٹیٹ آئل",
        "brand:wikipedia:ur": "پاکستان اسٹیٹ آئل",
        "name:ar": "النفط الحكومية الباكستانية",
        "name:en": "Pakistan State Oil",
        "name:ks": "پاکستان اسٹیٹ آئل",
        "name:pnb": "پاکستان سٹیٹ آئل",
        "name:sd": "پاڪستان اسٽيٽ آئل",
        "name:ur": "پاکستان اسٹیٹ آئل",
        "short_name": "پی ایس او",
        "short_name:ur": "پی ایس او"
      }
    },
    {
      "type": "Feature",
      "geometry": {
        "type": "Point",
        "coordinates": [
          73.1090128,
          33.6293146
        ]
      },
      "properties": {
        "id": 1674214238,
        "name": "SHAN CNG",
        "amenity": "fuel"
      }
    },
    {
      "type": "Feature",
      "geometry": {
        "type": "Point",
        "coordinates": [
          73.10114460000001,
          33.6284938
        ]
      },
      "properties": {
        "id": 1674221947,
        "name": "ARAMCO Petrol pump",
        "amenity": "fuel"
      }
    },
    {
      "type": "Feature",
      "geometry": {
        "type": "Point",
        "coordinates": [
          73.0920291,
          33.628367600000004
        ]
      },
      "properties": {
        "id": 1674222041,
        "name": "Al-Malik Petrol Pump",
        "amenity": "fuel"
      }
    },
    {
      "type": "Feature",
      "geometry": {
        "type": "Point",
        "coordinates": [
          68.2791076,
          25.429256300000002
        ]
      },
      "properties": {
        "id": 1674843722,
        "name": "University of Sindh CNG Station",
        "amenity": "fuel"
      }
    },
    {
      "type": "Feature",
      "geometry": {
        "type": "Point",
        "coordinates": [
          67.36334670000001,
          25.013514800000003
        ]
      },
      "properties": {
        "id": 1685605988,
        "name": "Katoor",
        "amenity": "fuel"
      }
    },
    {
      "type": "Feature",
      "geometry": {
        "type": "Point",
        "coordinates": [
          67.36150140000001,
          25.011142500000002
        ]
      },
      "properties": {
        "id": 1685606093,
        "name": "Unnamed",
        "amenity": "fuel"
      }
    },
    {
      "type": "Feature",
      "geometry": {
        "type": "Point",
        "coordinates": [
          67.3626708,
          25.012829300000003
        ]
      },
      "properties": {
        "id": 1685606229,
        "name": "Unnamed",
        "amenity": "fuel"
      }
    },
    {
      "type": "Feature",
      "geometry": {
        "type": "Point",
        "coordinates": [
          67.3775571,
          25.023421700000004
        ]
      },
      "properties": {
        "id": 1685606247,
        "name": "ٹوٹل",
        "addr:city": "Karachi",
        "addr:street": "Super Highway",
        "amenity": "fuel",
        "brand": "طوطال",
        "brand:ar": "طوطال",
        "brand:en": "Total",
        "brand:ur": "ٹوٹل",
        "brand:wikidata": "Q154037",
        "brand:wikipedia": "ar:طوطال",
        "brand:wikipedia:ar": "طوطال",
        "fuel:octane_95": "yes",
        "fuel:octane_98": "yes",
        "name:ar": "طوطال",
        "name:en": "Total",
        "name:ur": "ٹوٹل",
        "operator": "ٹوٹل پارکو",
        "operator:ar": "طوطال باركو",
        "operator:en": "Total Parco",
        "operator:ur": "ٹوٹل پارکو",
        "operator:website": "https://www.totalparco.com.pk/",
        "operator:wikidata": "Q85810269"
      }
    },
    {
      "type": "Feature",
      "geometry": {
        "type": "Point",
        "coordinates": [
          73.0719737,
          33.70414
        ]
      },
      "properties": {
        "id": 1707162833,
        "name": "پاکستان اسٹیٹ آئل",
        "addr:city": "اسلام آباد",
        "addr:city:ar": "إسلام آباد",
        "addr:city:ks": "اِسلام آبادٖ",
        "addr:city:pnb": "اسلام آباد",
        "addr:city:ps": "اسلام آباد",
        "addr:city:sd": "اسلام آباد",
        "addr:city:ur": "اسلام آباد",
        "addr:street": "Rehman Baba Road",
        "amenity": "fuel",
        "brand": "پاکستان اسٹیٹ آئل",
        "brand:ar": "النفط الحكومية الباكستانية",
        "brand:ks": "پاکستان اسٹیٹ آئل",
        "brand:ur": "پاکستان اسٹیٹ آئل",
        "brand:wikidata": "Q2741455",
        "brand:wikipedia": "ur:پاکستان اسٹیٹ آئل",
        "brand:wikipedia:ur": "پاکستان اسٹیٹ آئل",
        "name:ar": "النفط الحكومية الباكستانية",
        "name:en": "Pakistan State Oil",
        "name:ks": "پاکستان اسٹیٹ آئل",
        "name:pnb": "پاکستان سٹیٹ آئل",
        "name:sd": "پاڪستان اسٽيٽ آئل",
        "name:ur": "پاکستان اسٹیٹ آئل",
        "short_name": "پی ایس او",
        "short_name:ur": "پی ایس او"
      }
    },
    {
      "type": "Feature",
      "geometry": {
        "type": "Point",
        "coordinates": [
          66.96857150000001,
          24.934245
        ]
      },
      "properties": {
        "id": 1723656328,
        "name": "Unnamed",
        "amenity": "fuel"
      }
    },
    {
      "type": "Feature",
      "geometry": {
        "type": "Point",
        "coordinates": [
          68.38800470000001,
          25.3682978
        ]
      },
      "properties": {
        "id": 1748371683,
        "name": "Total Parco Pakistan",
        "addr:city": "حیدرآباد",
        "addr:city:en": "Hyderabad",
        "addr:city:fr": "Hyderâbâd",
        "addr:city:pa": "ਹੈਦਰਾਬਾਦ",
        "addr:city:ur": "حیدرآباد",
        "addr:street": "Hyderabad Badin Road",
        "amenity": "fuel"
      }
    },
    {
      "type": "Feature",
      "geometry": {
        "type": "Point",
        "coordinates": [
          68.3867376,
          25.368935600000004
        ]
      },
      "properties": {
        "id": 1748371716,
        "name": "Thar CNG Station",
        "addr:city": "حیدرآباد",
        "addr:city:en": "Hyderabad",
        "addr:city:fr": "Hyderâbâd",
        "addr:city:pa": "ਹੈਦਰਾਬਾਦ",
        "addr:city:ur": "حیدرآباد",
        "addr:street": "AUTOBHAN ROAD",
        "amenity": "fuel"
      }
    },
    {
      "type": "Feature",
      "geometry": {
        "type": "Point",
        "coordinates": [
          68.3880513,
          25.3689223
        ]
      },
      "properties": {
        "id": 1748371725,
        "name": "World Filling Station Total Petrol Station",
        "addr:city": "حیدرآباد",
        "addr:city:en": "Hyderabad",
        "addr:city:fr": "Hyderâbâd",
        "addr:city:pa": "ਹੈਦਰਾਬਾਦ",
        "addr:city:ur": "حیدرآباد",
        "addr:street": "Hyderabad Badin Road",
        "amenity": "fuel"
      }
    },
    {
      "type": "Feature",
      "geometry": {
        "type": "Point",
        "coordinates": [
          73.07120800000001,
          33.652659
        ]
      },
      "properties": {
        "id": 1794010051,
        "name": "diamond CNG",
        "amenity": "fuel"
      }
    },
    {
      "type": "Feature",
      "geometry": {
        "type": "Point",
        "coordinates": [
          71.90692130000001,
          29.6376789
        ]
      },
      "properties": {
        "id": 1811295429,
        "name": "Unnamed",
        "amenity": "fuel"
      }
    },
    {
      "type": "Feature",
      "geometry": {
        "type": "Point",
        "coordinates": [
          66.98285940000001,
          24.888864100000003
        ]
      },
      "properties": {
        "id": 1866256791,
        "name": "پاکستان اسٹیٹ آئل",
        "addr:city": "Karachi",
        "addr:postcode": "75020",
        "addr:street": "Estate Avenue",
        "amenity": "fuel",
        "brand": "پاکستان اسٹیٹ آئل",
        "brand:ar": "النفط الحكومية الباكستانية",
        "brand:ks": "پاکستان اسٹیٹ آئل",
        "brand:ur": "پاکستان اسٹیٹ آئل",
        "brand:wikidata": "Q2741455",
        "brand:wikipedia": "ur:پاکستان اسٹیٹ آئل",
        "brand:wikipedia:ur": "پاکستان اسٹیٹ آئل",
        "name:ar": "النفط الحكومية الباكستانية",
        "name:en": "Pakistan State Oil",
        "name:ks": "پاکستان اسٹیٹ آئل",
        "name:pnb": "پاکستان سٹیٹ آئل",
        "name:sd": "پاڪستان اسٽيٽ آئل",
        "name:ur": "پاکستان اسٹیٹ آئل",
        "short_name": "پی ایس او",
        "short_name:ur": "پی ایس او"
      }
    },
    {
      "type": "Feature",
      "geometry": {
        "type": "Point",
        "coordinates": [
          73.0815355,
          33.6527812
        ]
      },
      "properties": {
        "id": 1891103597,
        "name": "CNG Station",
        "amenity": "fuel",
        "fuel:1_25": "no",
        "fuel:1_50": "no",
        "fuel:GTL_diesel": "no",
        "fuel:HGV_diesel": "no",
        "fuel:biodiesel": "no",
        "fuel:biogas": "no",
        "fuel:cng": "yes",
        "fuel:diesel": "no",
        "fuel:e10": "no",
        "fuel:e85": "no",
        "fuel:lpg": "no",
        "fuel:octane_100": "no",
        "fuel:octane_91": "no",
        "fuel:octane_95": "no",
        "fuel:octane_98": "no",
        "wheelchair": "yes"
      }
    },
    {
      "type": "Feature",
      "geometry": {
        "type": "Point",
        "coordinates": [
          71.48029620000001,
          30.231873800000002
        ]
      },
      "properties": {
        "id": 1921952414,
        "name": "Al Hamd CNG",
        "addr:city": "ملتان",
        "addr:street": "Bosan Rd",
        "amenity": "fuel"
      }
    },
    {
      "type": "Feature",
      "geometry": {
        "type": "Point",
        "coordinates": [
          71.445873,
          30.178928000000003
        ]
      },
      "properties": {
        "id": 1921952435,
        "name": "Apex CNG",
        "addr:city": "ملتان",
        "amenity": "fuel"
      }
    },
    {
      "type": "Feature",
      "geometry": {
        "type": "Point",
        "coordinates": [
          71.439328,
          30.181289000000003
        ]
      },
      "properties": {
        "id": 1921952444,
        "name": "Askari CNG",
        "addr:city": "ملتان",
        "amenity": "fuel"
      }
    },
    {
      "type": "Feature",
      "geometry": {
        "type": "Point",
        "coordinates": [
          71.4738368,
          30.216134900000004
        ]
      },
      "properties": {
        "id": 1921952527,
        "name": "CNG Station Eco Drive Bosan Road Near Tehsil Chowk",
        "addr:city": "ملتان",
        "addr:street": "Bosan Rd",
        "amenity": "fuel"
      }
    },
    {
      "type": "Feature",
      "geometry": {
        "type": "Point",
        "coordinates": [
          71.483531,
          30.172448000000003
        ]
      },
      "properties": {
        "id": 1921952528,
        "name": "سی این جی",
        "addr:city": "ملتان",
        "addr:street": "Vehari Rd",
        "amenity": "fuel",
        "fuel:cng": "yes",
        "name:ar": "غاز طبيعي مضغوط",
        "name:en": "CNG",
        "name:etymology": "سی این جی",
        "name:etymology:wikidata": "Q720050",
        "name:etymology:wikipedia": "ur:سی این جی",
        "name:ur": "سی این جی"
      }
    },
    {
      "type": "Feature",
      "geometry": {
        "type": "Point",
        "coordinates": [
          71.470785,
          30.199957
        ]
      },
      "properties": {
        "id": 1921952529,
        "name": "سی این جی",
        "addr:city": "ملتان",
        "amenity": "fuel",
        "fuel:cng": "yes",
        "name:ar": "غاز طبيعي مضغوط",
        "name:en": "CNG",
        "name:etymology": "سی این جی",
        "name:etymology:wikidata": "Q720050",
        "name:etymology:wikipedia": "ur:سی این جی",
        "name:ur": "سی این جی"
      }
    },
    {
      "type": "Feature",
      "geometry": {
        "type": "Point",
        "coordinates": [
          71.462631,
          30.207961
        ]
      },
      "properties": {
        "id": 1921952530,
        "name": "سی این جی",
        "addr:city": "ملتان",
        "addr:street": "LMQ Rd",
        "amenity": "fuel",
        "compressed_air": "yes",
        "fuel:cng": "yes",
        "name:ar": "غاز طبيعي مضغوط",
        "name:en": "CNG",
        "name:etymology": "سی این جی",
        "name:etymology:wikidata": "Q720050",
        "name:etymology:wikipedia": "ur:سی این جی",
        "name:ur": "سی این جی"
      }
    },
    {
      "type": "Feature",
      "geometry": {
        "type": "Point",
        "coordinates": [
          71.471901,
          30.210214000000004
        ]
      },