{
  "type": "FeatureCollection",
  "features": [
    {
      "type": "Feature",
      "geometry": {
        "type": "Point",
        "coordinates": [
          73.0417644,
          33.7104738
        ]
      },
      "properties": {
        "id": 240218764,
        "name": "Ali Medical Centre",
        "addr:city": "اسلام آباد",
        "addr:city:ar": "إسلام آباد",
        "addr:city:en": "Islamabad",
        "addr:city:ks": "اِسلام آبادٖ",
        "addr:city:pnb": "اسلام آباد",
        "addr:city:ps": "اسلام آباد",
        "addr:city:sd": "اسلام آباد",
        "addr:city:ur": "اسلام آباد",
        "addr:street": "Kohistan Road",
        "amenity": "hospital",
        "healthcare": "hospital",
        "name:en": "Ali Medical Centre"
      }
    },
    {
      "type": "Feature",
      "geometry": {
        "type": "Point",
        "coordinates": [
          73.0828053,
          33.7211006
        ]
      },
      "properties": {
        "id": 253018400,
        "name": "Poly Clinic Hospital",
        "amenity": "hospital",
        "healthcare": "hospital",
        "is_in": "G-6, Islamabad"
      }
    },
    {
      "type": "Feature",
      "geometry": {
        "type": "Point",
        "coordinates": [
          73.0492626,
          33.581640900000004
        ]
      },
      "properties": {
        "id": 255764767,
        "name": "CMH",
        "amenity": "hospital",
        "emergency": "yes",
        "healthcare": "hospital",
        "is_in": "Rawalpindi, Punjab, Pakistan"
      }
    },
    {
      "type": "Feature",
      "geometry": {
        "type": "Point",
        "coordinates": [
          73.05751400000001,
          33.5952769
        ]
      },
      "properties": {
        "id": 255954369,
        "name": "Healthways",
        "amenity": "hospital",
        "created_by": "Potlatch 0.8a",
        "is_in": "Rawalpindi Cantt."
      }
    },
    {
      "type": "Feature",
      "geometry": {
        "type": "Point",
        "coordinates": [
          74.37149840000001,
          31.476734200000003
        ]
      },
      "properties": {
        "id": 271105745,
        "name": "DHA Medical Center Phase III",
        "addr:city": "Lahore",
        "addr:street": "St 29 Sec W Ph 3",
        "amenity": "hospital",
        "emergency": "yes",
        "healthcare": "hospital"
      }
    },
    {
      "type": "Feature",
      "geometry": {
        "type": "Point",
        "coordinates": [
          74.39469030000001,
          31.485592300000004
        ]
      },
      "properties": {
        "id": 271284373,
        "name": "Unnamed",
        "amenity": "clinic"
      }
    },
    {
      "type": "Feature",
      "geometry": {
        "type": "Point",
        "coordinates": [
          72.91515500000001,
          33.9994153
        ]
      },
      "properties": {
        "id": 296345225,
        "name": "D.H.Q. Hospital",
        "amenity": "hospital"
      }
    },
    {
      "type": "Feature",
      "geometry": {
        "type": "Point",
        "coordinates": [
          72.92962940000001,
          33.996244000000004
        ]
      },
      "properties": {
        "id": 297159227,
        "name": "Alrasheed Hospital Haripur",
        "amenity": "hospital",
        "description": "Alrasheed Hospital Haripur",
        "healthcare": "hospital"
      }
    },
    {
      "type": "Feature",
      "geometry": {
        "type": "Point",
        "coordinates": [
          72.9321443,
          33.9968489
        ]
      },
      "properties": {
        "id": 297213052,
        "name": "Alghazi Hospital",
        "amenity": "hospital"
      }
    },
    {
      "type": "Feature",
      "geometry": {
        "type": "Point",
        "coordinates": [
          72.9266669,
          33.9689679
        ]
      },
      "properties": {
        "id": 297470231,
        "name": "TIP Hospital",
        "amenity": "hospital"
      }
    },
    {
      "type": "Feature",
      "geometry": {
        "type": "Point",
        "coordinates": [
          73.0794388,
          33.7054375
        ]
      },
      "properties": {
        "id": 297648462,
        "name": "Islamabad International َDental Hospital and College",
        "addr:city": "اسلام آباد",
        "addr:city:ar": "إسلام آباد",
        "addr:city:en": "Islamabad",
        "addr:city:ks": "اِسلام آبادٖ",
        "addr:city:pnb": "اسلام آباد",
        "addr:city:ps": "اسلام آباد",
        "addr:city:sd": "اسلام آباد",
        "addr:city:ur": "اسلام آباد",
        "addr:street": "Service Road East G-7",
        "amenity": "hospital",
        "name:ur": "اسلام آباد انٹرنیشنل ڈینٹل ہسپتال اور کالج"
      }
    },
    {
      "type": "Feature",
      "geometry": {
        "type": "Point",
        "coordinates": [
          72.94191830000001,
          33.9959664
        ]
      },
      "properties": {
        "id": 309505786,
        "name": "Mother Care Maternity",
        "amenity": "hospital",
        "created_by": "Potlatch 0.10f"
      }
    },
    {
      "type": "Feature",
      "geometry": {
        "type": "Point",
        "coordinates": [
          72.927017,
          33.994919
        ]
      },
      "properties": {
        "id": 309598272,
        "name": "Alfaisal Hospital",
        "amenity": "hospital",
        "created_by": "Potlatch 0.10f"
      }
    },
    {
      "type": "Feature",
      "geometry": {
        "type": "Point",
        "coordinates": [
          73.01704360000001,
          33.7156183
        ]
      },
      "properties": {
        "id": 312719028,
        "name": "PAF Hospital",
        "addr:city": "اسلام آباد",
        "addr:city:ar": "إسلام آباد",
        "addr:city:en": "Islamabad",
        "addr:city:ks": "اِسلام آبادٖ",
        "addr:city:pnb": "اسلام آباد",
        "addr:city:ps": "اسلام آباد",
        "addr:city:sd": "اسلام آباد",
        "addr:city:ur": "اسلام آباد",
        "addr:street": "Rashid Minhas Boulevard",
        "amenity": "hospital",
        "emergency": "yes"
      }
    },
    {
      "type": "Feature",
      "geometry": {
        "type": "Point",
        "coordinates": [
          71.4440615,
          30.202948100000004
        ]
      },
      "properties": {
        "id": 444356921,
        "name": "Nishtar Medical College",
        "amenity": "hospital",
        "healthcare": "hospital"
      }
    },
    {
      "type": "Feature",
      "geometry": {
        "type": "Point",
        "coordinates": [
          71.5027225,
          30.269106200000003
        ]
      },
      "properties": {
        "id": 444357811,
        "name": "University Clinic",
        "amenity": "clinic",
        "healthcare": "clinic",
        "opening_hours": "Mo-Su 12:00-12:00"
      }
    },
    {
      "type": "Feature",
      "geometry": {
        "type": "Point",
        "coordinates": [
          74.6144969,
          36.3094952
        ]
      },
      "properties": {
        "id": 444597688,
        "name": "Aliabad, Hospital",
        "amenity": "hospital"
      }
    },
    {
      "type": "Feature",
      "geometry": {
        "type": "Point",
        "coordinates": [
          67.0544131,
          24.856396600000004
        ]
      },
      "properties": {
        "id": 479737407,
        "name": "Alvi Dental Hospital",
        "addr:city": "Karachi",
        "addr:country": "PK",
        "addr:housenumber": "SMCHS Block B",
        "addr:place": "SMCHS Block B",
        "addr:province": "Sindh",
        "addr:street": "SMCHS",
        "addr:suburb": "PECHS",
        "amenity": "hospital",
        "healthcare": "hospital"
      }
    },
    {
      "type": "Feature",
      "geometry": {
        "type": "Point",
        "coordinates": [
          74.3116217,
          31.502479
        ]
      },
      "properties": {
        "id": 526681507,
        "name": "PU Health Center",
        "amenity": "hospital"
      }
    },
    {
      "type": "Feature",
      "geometry": {
        "type": "Point",
        "coordinates": [
          71.75422850000001,
          29.3755291
        ]
      },
      "properties": {
        "id": 526706371,
        "name": "IUB Hospital",
        "amenity": "hospital",
        "check_date": "2026-01-17",
        "key": "Islamia University Bahawalpur"
      }
    },
    {
      "type": "Feature",
      "geometry": {
        "type": "Point",
        "coordinates": [
          74.340491,
          31.508681700000004
        ]
      },
      "properties": {
        "id": 563684371,
        "name": "متحده مسیحي روغتون.",
        "addr:city": "لاہور",
        "amenity": "hospital",
        "emergency": "yes",
        "healthcare": "hospital",
        "name:en": "United Christian Hospital",
        "name:es": "Hospital Cristiano Unido",
        "name:ur": "یونائیٹڈ کرسچن ہسپتال"
      }
    },
    {
      "type": "Feature",
      "geometry": {
        "type": "Point",
        "coordinates": [
          73.4201276,
          31.336381100000004
        ]
      },
      "properties": {
        "id": 617962741,
        "name": "Hafiz Aslam Dental Clinic",
        "amenity": "hospital"
      }
    },
    {
      "type": "Feature",
      "geometry": {
        "type": "Point",
        "coordinates": [
          74.263181,
          31.496780200000003
        ]
      },
      "properties": {
        "id": 674141730,
        "name": "Social Security Hospital",
        "addr:city": "Lahore",
        "addr:street": "Multan Road",
        "amenity": "hospital",
        "wikidata": "Q7260296",
        "wikipedia": "ur:پنجاب سوشل سیکورٹی ہسپتال، لاہور"
      }
    },
    {
      "type": "Feature",
      "geometry": {
        "type": "Point",
        "coordinates": [
          67.0570175,
          24.894767100000003
        ]
      },
      "properties": {
        "id": 732019120,
        "name": "Tania Clinic",
        "addr:city": "Karachi",
        "addr:street": "Jail Road",
        "amenity": "clinic"
      }
    },
    {
      "type": "Feature",
      "geometry": {
        "type": "Point",
        "coordinates": [
          70.919967,
          31.827124800000004
        ]
      },
      "properties": {
        "id": 846545733,
        "name": "Combined Military Hospital Family Section",
        "amenity": "hospital",
        "healthcare": "hospital",
        "healthcare:speciality": "family_medicine"
      }
    },
    {
      "type": "Feature",
      "geometry": {
        "type": "Point",
        "coordinates": [
          70.91926000000001,
          31.814020000000003
        ]
      },
      "properties": {
        "id": 846545734,
        "name": "Mehmood Eye Hospital",
        "amenity": "hospital"
      }
    },
    {
      "type": "Feature",
      "geometry": {
        "type": "Point",
        "coordinates": [
          70.89788100000001,
          31.822818700000003
        ]
      },
      "properties": {
        "id": 846545735,
        "name": "Mission Hospital",
        "amenity": "hospital",
        "healthcare": "hospital"
      }
    },
    {
      "type": "Feature",
      "geometry": {
        "type": "Point",
        "coordinates": [
          70.92119000000001,
          31.82654
        ]
      },
      "properties": {
        "id": 846545736,
        "name": "Combined Military Hospital",
        "amenity": "hospital",
        "healthcare": "hospital"
      }
    },
    {
      "type": "Feature",
      "geometry": {
        "type": "Point",
        "coordinates": [
          71.5427023,
          34.003408300000004
        ]
      },
      "properties": {
        "id": 854341089,
        "name": "CMH Peshawar - Combined Military Hospital",
        "amenity": "hospital",
        "emergency": "yes",
        "name:ps": "CMH پېښور - ګډ پوځي روغتون",
        "name:ur": "سی ایم ایچ پشاور - کمبائنڈ ملٹری ہسپتال",
        "source": "CIA map"
      }
    },
    {
      "type": "Feature",
      "geometry": {
        "type": "Point",
        "coordinates": [
          74.61248130000001,
          36.3063914
        ]
      },
      "properties": {
        "id": 880522069,
        "name": "Aga Khan Health Center",
        "amenity": "doctors"
      }
    },
    {
      "type": "Feature",
      "geometry": {
        "type": "Point",
        "coordinates": [
          74.61254640000001,
          36.306398200000004
        ]
      },
      "properties": {
        "id": 880532051,
        "name": "Aga Khan Health Center",
        "amenity": "hospital"
      }
    },
    {
      "type": "Feature",
      "geometry": {
        "type": "Point",
        "coordinates": [
          72.4137005,
          32.9387131
        ]
      },
      "properties": {
        "id": 895554389,
        "name": "Unnamed",
        "amenity": "hospital",
        "healthcare": "hospital"
      }
    },
    {
      "type": "Feature",
      "geometry": {
        "type": "Point",
        "coordinates": [
          68.8554361,
          27.691213500000003
        ]
      },
      "properties": {
        "id": 955183623,
        "name": "HIRA hospital",
        "addr:city": "Sukkur",
        "addr:street": "Workshop Road",
        "amenity": "hospital",
        "healthcare": "hospital"
      }
    },
    {
      "type": "Feature",
      "geometry": {
        "type": "Point",
        "coordinates": [
          68.35674700000001,
          25.371197900000002
        ]
      },
      "properties": {
        "id": 1088992109,
        "name": "DOCTORS PLAZA",
        "amenity": "hospital"
      }
    },
    {
      "type": "Feature",
      "geometry": {
        "type": "Point",
        "coordinates": [
          68.3765575,
          25.3954647
        ]
      },
      "properties": {
        "id": 1093392155,
        "name": "Memon Hospital",
        "addr:city": "حیدرآباد",
        "addr:city:en": "Hyderabad",
        "addr:city:fr": "Hyderâbâd",
        "addr:city:pa": "ਹੈਦਰਾਬਾਦ",
        "addr:city:ur": "حیدرآباد",
        "addr:street": "Haji Ehsan Ali Road",
        "amenity": "hospital",
        "healthcare": "hospital"
      }
    },
    {
      "type": "Feature",
      "geometry": {
        "type": "Point",
        "coordinates": [
          68.34794930000001,
          25.372574900000004
        ]
      },
      "properties": {
        "id": 1096136959,
        "name": "Red Crescent Institute of Cardiology",
        "addr:city": "حیدرآباد",
        "addr:city:en": "Hyderabad",
        "addr:city:fr": "Hyderâbâd",
        "addr:city:pa": "ਹੈਦਰਾਬਾਦ",
        "addr:city:ur": "حیدرآباد",
        "addr:street": "unit no.2 main road",
        "amenity": "hospital",
        "healthcare": "hospital",
        "healthcare:speciality": "cardiology"
      }
    },
    {
      "type": "Feature",
      "geometry": {
        "type": "Point",
        "coordinates": [
          68.35541380000001,
          25.374085100000002
        ]
      },
      "properties": {
        "id": 1099449484,
        "name": "Unnamed",
        "addr:city": "حیدرآباد",
        "addr:city:en": "Hyderabad",
        "addr:city:fr": "Hyderâbâd",
        "addr:city:pa": "ਹੈਦਰਾਬਾਦ",
        "addr:city:ur": "حیدرآباد",
        "addr:street": "BRIDGE",
        "amenity": "hospital"
      }
    },
    {
      "type": "Feature",
      "geometry": {
        "type": "Point",
        "coordinates": [
          68.36294050000001,
          25.392263800000002
        ]
      },
      "properties": {
        "id": 1101278044,
        "name": "Unnamed",
        "amenity": "hospital"
      }
    },
    {
      "type": "Feature",
      "geometry": {
        "type": "Point",
        "coordinates": [
          68.3523961,
          25.3682693
        ]
      },
      "properties": {
        "id": 1102236416,
        "name": "Red Crescent General Hospital Hilal E Ahmer",
        "addr:city": "حیدرآباد",
        "addr:city:en": "Hyderabad",
        "addr:city:fr": "Hyderâbâd",
        "addr:city:pa": "ਹੈਦਰਾਬਾਦ",
        "addr:city:ur": "حیدرآباد",
        "addr:street": "Unit No 6",
        "amenity": "hospital"
      }
    },
    {
      "type": "Feature",
      "geometry": {
        "type": "Point",
        "coordinates": [
          68.36276740000001,
          25.334336500000003
        ]
      },
      "properties": {
        "id": 1107332782,
        "name": "Unnamed",
        "amenity": "hospital"
      }
    },
    {
      "type": "Feature",
      "geometry": {
        "type": "Point",
        "coordinates": [
          68.37594800000001,
          25.3882
        ]
      },
      "properties": {
        "id": 1119754101,
        "name": "Homeo Pathic Hospital",
        "addr:city": "حیدرآباد",
        "addr:city:en": "Hyderabad",
        "addr:city:fr": "Hyderâbâd",
        "addr:city:pa": "ਹੈਦਰਾਬਾਦ",
        "addr:city:ur": "حیدرآباد",
        "addr:street": "Station Road",
        "amenity": "hospital",
        "healthcare": "hospital"
      }
    },
    {
      "type": "Feature",
      "geometry": {
        "type": "Point",
        "coordinates": [
          71.4465687,
          33.9918034
        ]
      },
      "properties": {
        "id": 1224286127,
        "name": "Kidney Disease Centre",
        "amenity": "hospital",
        "healthcare": "hospital"
      }
    },
    {
      "type": "Feature",
      "geometry": {
        "type": "Point",
        "coordinates": [
          71.43590400000001,
          33.993968100000004
        ]
      },
      "properties": {
        "id": 1224404657,
        "name": "Northwest General Hospital & Research Center",
        "amenity": "hospital",
        "emergency": "yes",
        "healthcare": "hospital",
        "name:ps": "د شمال لویدیځ عمومي روغتون او څیړنیز مرکز",
        "name:ur": "نارتھ ویسٹ جنرل ہسپتال اینڈ ریسرچ سینٹر"
      }
    },
    {
      "type": "Feature",
      "geometry": {
        "type": "Point",
        "coordinates": [
          71.4896082,
          33.9960712
        ]
      },
      "properties": {
        "id": 1226378412,
        "name": "ICRC Wound Trauma Hospital",
        "amenity": "hospital",
        "emergency": "yes",
        "healthcare": "hospital"
      }
    },
    {
      "type": "Feature",
      "geometry": {
        "type": "Point",
        "coordinates": [
          71.4917862,
          33.9911788
        ]
      },
      "properties": {
        "id": 1226378422,
        "name": "Kulsoom Maternity Home",
        "amenity": "hospital",
        "check_date": "2024-11-16",
        "emergency": "no",
        "healthcare": "hospital"
      }
    },
    {
      "type": "Feature",
      "geometry": {
        "type": "Point",
        "coordinates": [
          71.4913356,
          33.990849700000005
        ]
      },
      "properties": {
        "id": 1226378424,
        "name": "Shakat Khanum Clinic",
        "amenity": "hospital",
        "healthcare": "hospital"
      }
    },
    {
      "type": "Feature",
      "geometry": {
        "type": "Point",
        "coordinates": [
          71.48705410000001,
          33.995949
        ]
      },
      "properties": {
        "id": 1226398110,
        "name": "Khyber Teaching Hospital - Accident and Emergency",
        "amenity": "hospital",
        "emergency": "yes",
        "healthcare": "hospital",
        "name:ur": "خیبر ٹیچنگ ہسپتال - حادثات اور ایمرجنسی",
        "operator": "Pubic",
        "operator:type": "government"
      }
    },
    {
      "type": "Feature",
      "geometry": {
        "type": "Point",
        "coordinates": [
          74.2992722,
          31.469851000000002
        ]
      },
      "properties": {
        "id": 1357553198,
        "name": "Saadan Hospital",
        "addr:city": "Lahore",
        "addr:street": "Khayaban-e-Firdousi",
        "amenity": "hospital",
        "emergency": "yes"
      }
    },
    {
      "type": "Feature",
      "geometry": {
        "type": "Point",
        "coordinates": [
          74.3055729,
          31.467894800000003
        ]
      },
      "properties": {
        "id": 1357561220,
        "name": "Dr Muhammad Arsalan Butt - Iqra Medical Complex Johar Town",
        "addr:city": "Lahore",
        "addr:housenumber": "Block A Phase 1 Johar Town",
        "addr:postcode": "54770",
        "addr:street": "Maulana Shaukat Ali Road",
        "amenity": "hospital",
        "contact:facebook": "https://www.facebook.com/Urologist.pk/",
        "emergency": "yes",
        "healthcare": "hospital",
        "healthcare:speciality": "urology",
        "image": "https://lh3.googleusercontent.com/p/AF1QipMBrEL9QKcP_B1Is0ZpaHbcVPsHr8KZ_AYg82Kw=s680-w680-h510-rw",
        "mobile": "0329 2133999",
        "official_name": "Dr Muhammad Arsalan Butt - Best Urologist in Lahore | Kidney stone and prostate Surgeon | Male infertility specialist",
        "opening_hours": "24/7",
        "operator": "Dr Muhammad Arsalan Butt",
        "operator:type": "public",
        "website": "https://share.google/yYEdGcFIygiQxEg9y"
      }
    },
    {
      "type": "Feature",
      "geometry": {
        "type": "Point",
        "coordinates": [
          73.1063687,
          33.5732
        ]
      },
      "properties": {
        "id": 1362714223,
        "name": "Safari Hospital",
        "amenity": "hospital"
      }
    },
    {
      "type": "Feature",
      "geometry": {
        "type": "Point",
        "coordinates": [
          74.37258250000001,
          31.540665500000003
        ]
      },
      "properties": {
        "id": 1366525560,
        "name": "Combined Military Hospital",
        "amenity": "hospital"
      }
    },
    {
      "type": "Feature",
      "geometry": {
        "type": "Point",
        "coordinates": [
          67.0885875,
          24.922315400000002
        ]
      },
      "properties": {
        "id": 1410491679,
        "name": "RAB Medical Centre",
        "addr:city": "Karachi",
        "addr:street": "Allama Shabbir Ahmed Usmani Road",
        "amenity": "hospital"
      }
    },
    {
      "type": "Feature",
      "geometry": {
        "type": "Point",
        "coordinates": [
          67.0882897,
          24.9215799
        ]
      },
      "properties": {
        "id": 1410491682,
        "name": "Samdani Hospital",
        "addr:city": "Karachi",
        "amenity": "hospital",
        "healthcare": "hospital",
        "name:ur": "صمدانی ہسپتال"
      }
    },
    {
      "type": "Feature",
      "geometry": {
        "type": "Point",
        "coordinates": [
          66.9452126,
          24.8810104
        ]
      },
      "properties": {
        "id": 1428217425,
        "name": "Family Wing",
        "addr:city": "Karachi",
        "addr:country": "PK",
        "addr:postcode": "75020",
        "addr:province": "Sindh",
        "amenity": "hospital"
      }
    },
    {
      "type": "Feature",
      "geometry": {
        "type": "Point",
        "coordinates": [
          66.9471331,
          24.881983700000003
        ]
      },
      "properties": {
        "id": 1428217500,
        "name": "PAF Hospital",
        "addr:city": "Karachi",
        "addr:country": "PK",
        "addr:postcode": "75020",
        "addr:province": "Sindh",
        "amenity": "hospital"
      }
    },
    {
      "type": "Feature",
      "geometry": {
        "type": "Point",
        "coordinates": [
          66.9486035,
          24.8801187
        ]
      },
      "properties": {
        "id": 1428217511,
        "name": "M I Room",
        "addr:city": "Karachi",
        "addr:country": "PK",
        "addr:postcode": "75020",
        "addr:province": "Sindh",
        "amenity": "hospital"
      }
    },
    {
      "type": "Feature",
      "geometry": {
        "type": "Point",
        "coordinates": [
          66.9529916,
          24.888182900000004
        ]
      },
      "properties": {
        "id": 1428265981,
        "name": "Medical Institute",
        "addr:city": "Karachi",
        "addr:country": "PK",
        "addr:postcode": "75020",
        "addr:province": "Sindh",
        "amenity": "hospital"
      }
    },
    {
      "type": "Feature",
      "geometry": {
        "type": "Point",
        "coordinates": [
          74.2904225,
          31.522000300000002
        ]
      },
      "properties": {
        "id": 1534280398,
        "name": "Unnamed",
        "amenity": "doctors",
        "description": "Medical care doctor"
      }
    },
    {
      "type": "Feature",
      "geometry": {
        "type": "Point",
        "coordinates": [
          73.17539810000001,
          33.6454153
        ]
      },
      "properties": {
        "id": 1668718996,
        "name": "Shakeela Shabir Hospital",
        "amenity": "hospital",
        "emergency": "yes"
      }
    },
    {
      "type": "Feature",
      "geometry": {
        "type": "Point",
        "coordinates": [
          73.17445260000001,
          33.6453694
        ]
      },
      "properties": {
        "id": 1668719004,
        "name": "Begam Jan Hospital",
        "addr:city": "اسلام آباد",
        "addr:city:ar": "إسلام آباد",
        "addr:city:en": "Islamabad",
        "addr:city:ks": "اِسلام آبادٖ",
        "addr:city:pnb": "اسلام آباد",
        "addr:city:ps": "اسلام آباد",
        "addr:city:sd": "اسلام آباد",
        "addr:city:ur": "اسلام آباد",
        "addr:housenumber": "Madina Town",
        "addr:postcode": "46000",
        "addr:street": "Lehtrar Road Alipur",
        "amenity": "hospital",
        "emergency": "yes",
        "healthcare": "hospital",
        "healthcare:speciality": "general",
        "phone": "+923235380006"
      }
    },
    {
      "type": "Feature",
      "geometry": {
        "type": "Point",
        "coordinates": [
          68.2708757,
          25.434054900000003
        ]
      },
      "properties": {
        "id": 1674843648,
        "name": "O.P.D.",
        "amenity": "hospital",
        "designation": "O.P.D.",
        "emergency": "yes"
      }
    },
    {
      "type": "Feature",
      "geometry": {
        "type": "Point",
        "coordinates": [
          73.0780754,
          33.7070214
        ]
      },
      "properties": {
        "id": 1707177004,
        "name": "International Islamic Medical Centre",
        "amenity": "hospital",
        "emergency": "yes"
      }
    },
    {
      "type": "Feature",
      "geometry": {
        "type": "Point",
        "coordinates": [
          70.12522150000001,
          32.335639400000005
        ]
      },
      "properties": {
        "id": 1741002364,
        "name": "Jandola Hosp",
        "amenity": "hospital",
        "emergency": "yes"
      }
    },
    {
      "type": "Feature",
      "geometry": {
        "type": "Point",
        "coordinates": [
          71.461623,
          30.202403000000004
        ]
      },
      "properties": {
        "id": 1921952412,
        "name": "Akhter Sultana Memorial Hospital",
        "addr:city": "ملتان",
        "addr:street": "Kacheri Rd",
        "amenity": "hospital",
        "healthcare": "hospital"
      }
    },
    {
      "type": "Feature",
      "geometry": {
        "type": "Point",
        "coordinates": [
          71.44877000000001,
          30.195043000000002
        ]
      },
      "properties": {
        "id": 1921952448,
        "name": "عظیم ہسپتال",
        "addr:city": "ملتان",
        "addr:street": "طارق روڈ",
        "amenity": "hospital",
        "healthcare": "hospital",
        "name:en": "Azeem Hospital",
        "name:ur": "عظیم ہسپتال"
      }
    },
    {
      "type": "Feature",
      "geometry": {
        "type": "Point",
        "coordinates": [
          71.43892000000001,
          30.201674000000004
        ]
      },
      "properties": {
        "id": 1921952512,
        "name": "Bodla Eye Care",
        "addr:city": "ملتان",
        "amenity": "hospital",
        "healthcare": "hospital"
      }
    },
    {
      "type": "Feature",
      "geometry": {
        "type": "Point",
        "coordinates": [
          71.441882,
          30.204828000000003
        ]
      },
      "properties": {
        "id": 1921952522,
        "name": "Burn Unit",
        "addr:city": "ملتان",
        "amenity": "hospital",
        "healthcare": "hospital"
      }
    },
    {
      "type": "Feature",
      "geometry": {
        "type": "Point",
        "coordinates": [
          71.45033600000001,
          30.191932
        ]
      },
      "properties": {
        "id": 1921952538,
        "name": "Cardialogy Centre",
        "addr:city": "ملتان",
        "amenity": "hospital",
        "healthcare": "hospital"
      }
    },
    {
      "type": "Feature",
      "geometry": {
        "type": "Point",
        "coordinates": [
          71.461859,
          30.196095000000003
        ]
      },
      "properties": {
        "id": 1921952551,
        "name": "Children Health Complax",
        "addr:city": "ملتان",
        "amenity": "hospital"
      }
    },
    {
      "type": "Feature",
      "geometry": {
        "type": "Point",
        "coordinates": [
          71.469648,
          30.211565000000004
        ]
      },
      "properties": {
        "id": 1921952562,
        "name": "City Hospital",
        "addr:city": "ملتان",
        "amenity": "hospital",
        "check_date": "2026-01-18"
      }
    },
    {
      "type": "Feature",
      "geometry": {
        "type": "Point",
        "coordinates": [
          71.43628100000001,
          30.181890000000003
        ]
      },
      "properties": {
        "id": 1921952864,
        "name": "FG Degree College",
        "addr:city": "ملتان",
        "addr:street": "Shershah Rd",
        "amenity": "hospital"
      }
    },
    {
      "type": "Feature",
      "geometry": {
        "type": "Point",
        "coordinates": [
          71.484368,
          30.173650000000002
        ]
      },
      "properties": {
        "id": 1921952871,
        "name": "Faisal Hospital",
        "addr:city": "ملتان",
        "amenity": "hospital"
      }
    },
    {
      "type": "Feature",
      "geometry": {
        "type": "Point",
        "coordinates": [
          71.48451800000001,
          30.210536
        ]
      },
      "properties": {
        "id": 1921952872,
        "name": "Faisal Hospital",
        "addr:city": "ملتان",
        "addr:street": "Khanewal Rd",
        "amenity": "hospital"
      }
    },
    {
      "type": "Feature",
      "geometry": {
        "type": "Point",
        "coordinates": [
          71.49559,
          30.159702000000003
        ]
      },
      "properties": {
        "id": 1921952877,
        "name": "Faiz hospital",
        "addr:city": "ملتان",
        "amenity": "hospital"
      }
    },
    {
      "type": "Feature",
      "geometry": {
        "type": "Point",
        "coordinates": [
          71.488595,
          30.176139000000003
        ]
      },
      "properties": {
        "id": 1921953224,
        "name": "Govt Mother child Care",
        "addr:city": "ملتان",
        "amenity": "hospital"
      }
    },
    {
      "type": "Feature",
      "geometry": {
        "type": "Point",
        "coordinates": [
          71.47977460000001,
          30.231177100000004
        ]
      },
      "properties": {
        "id": 1921953326,
        "name": "Gulzar Hospital",
        "addr:city": "ملتان",
        "addr:street": "Bosan Rd",
        "amenity": "hospital"
      }
    },
    {
      "type": "Feature",
      "geometry": {
        "type": "Point",
        "coordinates": [
          71.448791,
          30.203283000000003
        ]
      },
      "properties": {
        "id": 1921953434,
        "name": "Haleema Medical Complex",
        "addr:city": "ملتان",
        "amenity": "hospital",
        "healthcare": "hospital"
      }
    },
    {
      "type": "Feature",
      "geometry": {
        "type": "Point",
        "coordinates": [
          71.499131,
          30.173028000000002
        ]
      },
      "properties": {
        "id": 1921953746,
        "name": "Khaja Farid Hospital",
        "addr:city": "ملتان",
        "addr:street": "Vehari Rd",
        "amenity": "hospital"
      }
    },
    {
      "type": "Feature",
      "geometry": {
        "type": "Point",
        "coordinates": [
          71.448898,
          30.198498000000004
        ]
      },
      "properties": {
        "id": 1921953747,
        "name": "Khalid Bin Waleed",
        "addr:city": "ملتان",
        "addr:street": "Old BWP Rd",
        "amenity": "hospital",
        "healthcare": "hospital"
      }
    },
    {
      "type": "Feature",
      "geometry": {
        "type": "Point",
        "coordinates": [
          71.512392,
          30.202146000000003
        ]
      },
      "properties": {
        "id": 1921953926,
        "name": "Medical stores",
        "amenity": "hospital"
      }
    },
    {
      "type": "Feature",
      "geometry": {
        "type": "Point",
        "coordinates": [
          71.446098,
          30.1927677
        ]
      },
      "properties": {
        "id": 1921953929,
        "name": "Medicare Hospital",
        "addr:city": "ملتان",
        "amenity": "hospital",
        "emergency": "yes",
        "healthcare": "hospital"
      }
    },
    {
      "type": "Feature",
      "geometry": {
        "type": "Point",
        "coordinates": [
          71.441731,
          30.188649
        ]
      },
      "properties": {
        "id": 1921954003,
        "name": "مشنری ہسپتال",
        "addr:city": "ملتان",
        "amenity": "hospital",
        "healthcare": "hospital",
        "name:en": "Missionary Hospital",
        "name:es": "Hospital Misionero",
        "name:ur": "مشنری ہسپتال"
      }
    },
    {
      "type": "Feature",
      "geometry": {
        "type": "Point",
        "coordinates": [
          71.47548400000001,
          30.230534000000002
        ]
      },
      "properties": {
        "id": 1921954037,
        "name": "Nafees Medicare",
        "addr:city": "ملتان",
        "amenity": "hospital",
        "healthcare": "hospital"
      }
    },
    {
      "type": "Feature",
      "geometry": {
        "type": "Point",
        "coordinates": [
          71.44349100000001,
          30.202639
        ]
      },
      "properties": {
        "id": 1921954058,
        "name": "Nishtar Hospital",
        "addr:city": "ملتان",
        "amenity": "hospital",
        "healthcare": "hospital",
        "wikidata": "Q14956771"
      }
    },
    {
      "type": "Feature",
      "geometry": {
        "type": "Point",
        "coordinates": [
          71.47793100000001,
          30.225770000000004
        ]
      },
      "properties": {
        "id": 1921954070,
        "name": "Osama Medicare",
        "addr:city": "ملتان",
        "addr:street": "Bosan Rd",
        "amenity": "hospital",
        "healthcare": "hospital"
      }
    },
    {
      "type": "Feature",
      "geometry": {
        "type": "Point",
        "coordinates": [
          71.44192530000001,
          30.1813454
        ]
      },
      "properties": {
        "id": 1921954145,
        "name": "Railway Hospital",
        "addr:city": "ملتان",
        "amenity": "hospital"
      }
    },
    {
      "type": "Feature",
      "geometry": {
        "type": "Point",
        "coordinates": [
          71.51561000000001,
          30.200343000000004
        ]
      },
      "properties": {
        "id": 1921954269,
        "name": "Shan Medical center",
        "addr:city": "ملتان",
        "amenity": "hospital"
      }
    },
    {
      "type": "Feature",
      "geometry": {
        "type": "Point",
        "coordinates": [
          71.44922000000001,
          30.203068000000002
        ]
      },
      "properties": {
        "id": 1921954443,
        "name": "Ummer Hospital",
        "addr:city": "ملتان",
        "amenity": "hospital",
        "healthcare": "hospital"
      }
    },
    {
      "type": "Feature",
      "geometry": {
        "type": "Point",
        "coordinates": [
          71.504281,
          30.207832000000003
        ]
      },
      "properties": {
        "id": 1921954520,
        "name": "Wapda Hospital",
        "addr:city": "ملتان",
        "amenity": "hospital"
      }
    },
    {
      "type": "Feature",
      "geometry": {
        "type": "Point",
        "coordinates": [
          70.5053261,
          31.132379000000004
        ]
      },
      "properties": {
        "id": 1922123728,
        "name": "Ahsan Clinic",
        "addr:city": "Vehova",
        "addr:country": "PK",
        "addr:region": "PUNJAB",
        "addr:street": "Dannar.",
        "amenity": "hospital"
      }
    },
    {
      "type": "Feature",
      "geometry": {
        "type": "Point",
        "coordinates": [
          71.665621,
          29.403834000000003
        ]
      },
      "properties": {
        "id": 1925508131,
        "name": "Rasheed Hospital",
        "amenity": "hospital"
      }
    },
    {
      "type": "Feature",
      "geometry": {
        "type": "Point",
        "coordinates": [
          71.67725100000001,
          29.394221
        ]
      },
      "properties": {
        "id": 1925508155,
        "name": "Women Hospital",
        "addr:city": "BAHAWALPUR",
        "addr:country": "PK",
        "addr:district": "BAHAWALPUR",
        "addr:region": "PUNJAB",
        "amenity": "hospital"
      }
    },
    {
      "type": "Feature",
      "geometry": {
        "type": "Point",
        "coordinates": [
          70.630846,
          30.053401
        ]
      },
      "properties": {
        "id": 1927270766,
        "name": "Ali Hospital",
        "amenity": "hospital"
      }
    },
    {
      "type": "Feature",
      "geometry": {
        "type": "Point",
        "coordinates": [
          71.4497886,
          33.992350300000005
        ]
      },
      "properties": {
        "id": 1928920677,
        "name": "Hayatabad Medical Complex",
        "amenity": "hospital",
        "healthcare": "hospital",
        "name:ps": "د حیات آباد طبي کمپلیکس",
        "name:ur": "حیات آباد میڈیکل کمپلیکس"
      }
    },
    {
      "type": "Feature",
      "geometry": {
        "type": "Point",
        "coordinates": [
          73.09225670000001,
          33.6500798
        ]
      },
      "properties": {
        "id": 2013315334,
        "name": "Alrehman Family Clinic -- Lady Doctor Samina Azhar Awan",
        "amenity": "doctors",
        "source": "Physical suvey -- SaafPindi"
      }
    },
    {
      "type": "Feature",
      "geometry": {
        "type": "Point",
        "coordinates": [
          73.0856435,
          33.644787
        ]
      },
      "properties": {
        "id": 2016144810,
        "name": "Doctor Zarina Clinic (Dr. Zarina M.B.B.S & Dr. Saleha Masood Child Sp., Altrasound Sp.)",
        "amenity": "doctors",
        "source": "Physical suvey -- SaafPindi"
      }
    },
    {
      "type": "Feature",
      "geometry": {
        "type": "Point",
        "coordinates": [
          73.0853096,
          33.645020300000006
        ]
      },
      "properties": {
        "id": 2016144811,
        "name": "Dr. Sarfraz Khan",
        "amenity": "doctors",
        "source": "Physical suvey -- SaafPindi"
      }
    },
    {
      "type": "Feature",
      "geometry": {
        "type": "Point",
        "coordinates": [
          73.030179,
          33.6924791
        ]
      },
      "properties": {
        "id": 2147104935,
        "name": "Bilquis Memorial Hospital",
        "addr:city": "اسلام آباد",
        "addr:city:ar": "إسلام آباد",
        "addr:city:en": "Islamabad",
        "addr:city:ks": "اِسلام آبادٖ",
        "addr:city:pnb": "اسلام آباد",
        "addr:city:ps": "اسلام آباد",
        "addr:city:sd": "اسلام آباد",
        "addr:city:ur": "اسلام آباد",
        "addr:street": "Local path",
        "amenity": "hospital",
        "emergency": "yes",
        "source": "Survey"
      }
    },
    {
      "type": "Feature",
      "geometry": {
        "type": "Point",
        "coordinates": [
          71.1481468,
          31.638873300000004
        ]
      },
      "properties": {
        "id": 2272450638,
        "name": "Khansar Hospial",
        "amenity": "hospital",
        "emergency": "no"
      }
    },
    {
      "type": "Feature",
      "geometry": {
        "type": "Point",
        "coordinates": [
          71.55774740000001,
          34.0234601
        ]
      },
      "properties": {
        "id": 2345384102,
        "name": "Wapda Hospital",
        "amenity": "hospital",
        "emergency": "yes",
        "healthcare": "hospital",
        "name:ps": "واپډا روغتون",
        "name:ur": "واپڈا ہسپتال"
      }
    },
    {
      "type": "Feature",
      "geometry": {
        "type": "Point",
        "coordinates": [
          73.0811759,
          33.5635945
        ]
      },
      "properties": {
        "id": 2382402089,
        "name": "Nawaz Memorial",
        "amenity": "hospital"
      }
    },
    {
      "type": "Feature",
      "geometry": {
        "type": "Point",
        "coordinates": [
          73.09416320000001,
          33.4065093
        ]
      },
      "properties": {
        "id": 2382456547,
        "name": "Piyal Clinic",
        "amenity": "hospital"
      }
    },
    {
      "type": "Feature",
      "geometry": {
        "type": "Point",
        "coordinates": [
          73.0887052,
          33.403997000000004
        ]
      },
      "properties": {
        "id": 2389361975,
        "name": "Piyal Govt Hospital",
        "amenity": "hospital"
      }
    },
    {
      "type": "Feature",
      "geometry": {
        "type": "Point",
        "coordinates": [
          74.3154607,
          31.573546500000003
        ]
      },
      "properties": {
        "id": 2401515324,
        "name": "Lady Aitchison Hospital",
        "addr:city": "Lahore",
        "addr:housenumber": "H8F8+95J",
        "addr:postcode": "54000",
        "addr:street": "Mayo Hospital Rd, Anarkali Bazaar Lahore",
        "amenity": "hospital",
        "healthcare": "hospital",
        "name:ur": "لیڈی ایچی سن ہسپتال"
      }
    },
    {
      "type": "Feature",
      "geometry": {
        "type": "Point",
        "coordinates": [
          74.43764100000001,
          31.532440200000003
        ]
      },
      "properties": {
        "id": 2405855921,
        "name": "Zarrar Shaheed Trust hospital",
        "amenity": "hospital",
        "name:ur": "ضرار شہید ٹرسٹ ہسپتال"
      }
    },
    {
      "type": "Feature",
      "geometry": {
        "type": "Point",
        "coordinates": [
          74.08009580000001,
          32.5988327
        ]
      },
      "properties": {
        "id": 2418857836,
        "name": "Aziz bhati Hospital",
        "addr:postcode": "70500",
        "addr:street": "Bhimber Road",
        "amenity": "hospital",
        "emergency": "yes",
        "internet_access": "wlan",
        "name:en": "Aziz Bhatti Shaheed Teaching Hospital",
        "opening_hours": "24/7",
        "phone": "0539260101"
      }
    },
    {
      "type": "Feature",
      "geometry": {
        "type": "Point",
        "coordinates": [
          74.43301020000001,
          31.562432400000002
        ]
      },
      "properties": {
        "id": 2431251332,
        "name": "Zahid Health Home",
        "amenity": "hospital"
      }
    },
    {
      "type": "Feature",
      "geometry": {
        "type": "Point",
        "coordinates": [
          72.64664710000001,
          34.071447600000006
        ]
      },
      "properties": {
        "id": 2432510053,
        "name": "Medical Center",
        "amenity": "hospital"
      }
    },
    {
      "type": "Feature",
      "geometry": {
        "type": "Point",
        "coordinates": [
          73.4661219,
          34.372766000000006
        ]
      },
      "properties": {
        "id": 2433649244,
        "name": "CMH",
        "amenity": "hospital",
        "healthcare": "hospital"
      }
    },
    {
      "type": "Feature",
      "geometry": {
        "type": "Point",
        "coordinates": [
          73.0090668,
          33.609810200000005
        ]
      },
      "properties": {
        "id": 2441070147,
        "name": "Chinese",
        "amenity": "hospital"
      }
    },
    {
      "type": "Feature",
      "geometry": {
        "type": "Point",
        "coordinates": [
          73.01662680000001,
          33.6066048
        ]
      },
      "properties": {
        "id": 2445280289,
        "name": "Iqbal Clinic",
        "amenity": "hospital"
      }
    },
    {
      "type": "Feature",
      "geometry": {
        "type": "Point",
        "coordinates": [
          72.82622,
          33.7352271
        ]
      },
      "properties": {
        "id": 2446525132,
        "name": "HIT Hospital",
        "amenity": "hospital",
        "healthcare": "hospital"
      }
    },
    {
      "type": "Feature",
      "geometry": {
        "type": "Point",
        "coordinates": [
          74.31388380000001,
          31.540828200000004
        ]
      },
      "properties": {
        "id": 2448144940,
        "name": "حمزه روغتون",
        "addr:city": "Lahore",
        "addr:housename": "21 Shama Road",
        "addr:street": "Shama Road",
        "amenity": "hospital",
        "emergency": "yes",
        "phone": "+924237501597"
      }
    },
    {
      "type": "Feature",
      "geometry": {
        "type": "Point",
        "coordinates": [
          73.0188593,
          33.605916900000004
        ]
      },
      "properties": {
        "id": 2452453305,
        "name": "nisar hospital",
        "amenity": "hospital",
        "name:en": "nisar hospital"
      }
    },
    {
      "type": "Feature",
      "geometry": {
        "type": "Point",
        "coordinates": [
          73.0168038,
          33.6065199
        ]
      },
      "properties": {
        "id": 2461171369,
        "name": "Nghat Altrsound",
        "amenity": "hospital"
      }
    },
    {
      "type": "Feature",
      "geometry": {
        "type": "Point",
        "coordinates": [
          73.77478,
          33.9844461
        ]
      },
      "properties": {
        "id": 2463768911,
        "name": "Unnamed",
        "amenity": "hospital"
      }
    },
    {
      "type": "Feature",
      "geometry": {
        "type": "Point",
        "coordinates": [
          71.4370985,
          33.584540000000004
        ]
      },
      "properties": {
        "id": 2523073933,
        "name": "Sangir Hospital",
        "amenity": "hospital",
        "healthcare": "hospital",
        "name:ur": "سنگیر ہسپتال"
      }
    },
    {
      "type": "Feature",
      "geometry": {
        "type": "Point",
        "coordinates": [
          71.44639000000001,
          33.5868235
        ]
      },
      "properties": {
        "id": 2523132924,
        "name": "CMH (Combined Milatary Hospital)",
        "amenity": "hospital",
        "healthcare": "hospital",
        "name:ur": "سی ایم ایچ (کمبائنڈ ملٹری ہسپتال)",
        "opening_hours": "24/7"
      }
    },
    {
      "type": "Feature",
      "geometry": {
        "type": "Point",
        "coordinates": [
          67.3554507,
          24.8700417
        ]
      },
      "properties": {
        "id": 2552024424,
        "name": "الحدید میڈیکل سنٹر",
        "addr:city": "کراچی",
        "addr:housenumber": "1",
        "addr:postcode": "75010",
        "amenity": "hospital",
        "emergency": "yes",
        "healthcare": "hospital",
        "name:en": "Al Hadeed Medical Centre",
        "name:ur": "الحدید میڈیکل سنٹر"
      }
    },
    {
      "type": "Feature",
      "geometry": {
        "type": "Point",
        "coordinates": [
          73.2051385,
          33.655084300000006
        ]
      },
      "properties": {
        "id": 2604141784,
        "name": "Al Nafees Hospital & ISRA University",
        "addr:housename": "Farash Town, Islamabad",
        "amenity": "hospital",
        "emergency": "yes"
      }
    },
    {
      "type": "Feature",
      "geometry": {
        "type": "Point",
        "coordinates": [
          73.077516,
          33.6365733
        ]
      },
      "properties": {
        "id": 2606410068,
        "name": "Brain Surgery Hospital",
        "addr:city": "راولپنڈی",
        "addr:city:en": "Rawalpindi",
        "addr:city:fr": "Rawalpindi",
        "addr:city:pnb": "راولپنڈی",
        "addr:city:ur": "راولپنڈی",
        "addr:housenumber": "49A",
        "addr:postcode": "44000",
        "addr:street": "Iran Road",
        "amenity": "hospital",
        "email": "admin@brainsurgeryhospital.com",
        "emergency": "yes",
        "healthcare": "hospital",
        "healthcare:speciality": "general;neurosurgery;gynaecology;orthopaedics",
        "website": "https://brainsurgeryhospital.com/"
      }
    },
    {
      "type": "Feature",
      "geometry": {
        "type": "Point",
        "coordinates": [
          73.7834115,
          30.998806800000004
        ]
      },
      "properties": {
        "id": 2611963758,
        "name": "Union Council Hospital",
        "amenity": "hospital"
      }
    },
    {
      "type": "Feature",
      "geometry": {
        "type": "Point",
        "coordinates": [
          71.3797062,
          34.001930400000006
        ]
      },
      "properties": {
        "id": 2612042140,
        "name": "Khyber Clinic",
        "amenity": "hospital"
      }
    },
    {
      "type": "Feature",
      "geometry": {
        "type": "Point",
        "coordinates": [
          71.37808070000001,
          34.0015791
        ]
      },
      "properties": {
        "id": 2612042141,
        "name": "clinic, Dr. Samina",
        "amenity": "hospital"
      }
    },
    {
      "type": "Feature",
      "geometry": {
        "type": "Point",
        "coordinates": [
          73.23913540000001,
          33.3662641
        ]
      },
      "properties": {
        "id": 2623428760,
        "name": "Rafaqat Clinic",
        "addr:city": "Mandra",
        "amenity": "doctors"
      }
    },
    {
      "type": "Feature",
      "geometry": {
        "type": "Point",
        "coordinates": [
          73.2897461,
          33.395195900000004
        ]
      },
      "properties": {
        "id": 2627507841,
        "name": "Basic Health Unit",
        "amenity": "hospital"
      }
    },
    {
      "type": "Feature",
      "geometry": {
        "type": "Point",
        "coordinates": [
          73.0583723,
          33.6055828
        ]
      },
      "properties": {
        "id": 2640851716,
        "name": "Dr. Shafiq",
        "addr:city": "راولپنڈی",
        "addr:city:en": "Rawalpindi",
        "addr:city:fr": "Rawalpindi",
        "addr:city:pa": "ਰਾਵਲਪਿੰਡੀ",
        "addr:city:pnb": "راولپنڈی",
        "addr:city:ur": "راولپنڈی",
        "amenity": "doctors"
      }
    },
    {
      "type": "Feature",
      "geometry": {
        "type": "Point",
        "coordinates": [
          73.2398325,
          33.3653063
        ]
      },
      "properties": {
        "id": 2642297833,
        "name": "KAMRAN CLINIC",
        "addr:city": "Mandra",
        "amenity": "doctors"
      }
    },
    {
      "type": "Feature",
      "geometry": {
        "type": "Point",
        "coordinates": [
          73.01741220000001,
          33.6490366
        ]
      },
      "properties": {
        "id": 2656259979,
        "name": "NESCOM Hospital",
        "addr:city": "اسلام آباد",
        "addr:city:ar": "إسلام آباد",
        "addr:city:en": "Islamabad",
        "addr:city:ks": "اِسلام آبادٖ",
        "addr:city:pnb": "اسلام آباد",
        "addr:city:ps": "اسلام آباد",
        "addr:city:sd": "اسلام آباد",
        "addr:city:ur": "اسلام آباد",
        "addr:housenumber": "H-11/4",
        "addr:street": "Plot 94",
        "amenity": "hospital",
        "emergency": "yes",
        "healthcare": "hospital"
      }
    },
    {
      "type": "Feature",
      "geometry": {
        "type": "Point",
        "coordinates": [
          73.1283915,
          33.599873300000006
        ]
      },
      "properties": {
        "id": 2668896365,
        "name": "Unanimous Hospital and Laboratory",
        "amenity": "hospital"
      }
    },
    {
      "type": "Feature",
      "geometry": {
        "type": "Point",
        "coordinates": [
          73.1299175,
          33.5962565
        ]
      },
      "properties": {
        "id": 2668920461,
        "name": "Fatima Family Clinic",
        "amenity": "clinic"
      }
    },
    {
      "type": "Feature",
      "geometry": {
        "type": "Point",
        "coordinates": [
          67.0646827,
          24.9265842
        ]
      },
      "properties": {
        "id": 2671312033,
        "name": "Agha Khan Hospital for Women",
        "amenity": "hospital"
      }
    },
    {
      "type": "Feature",
      "geometry": {
        "type": "Point",
        "coordinates": [
          67.0447127,
          24.923927600000003
        ]
      },
      "properties": {
        "id": 2671409823,
        "name": "Ziauddin Hospital North Nazimabad",
        "addr:city": "Karachi",
        "addr:country": "PK",
        "addr:postcode": "74700",
        "addr:province": "Sindh",
        "addr:street": "Allama Rasheed Turabi Road",
        "addr:suburb": "North Nazimabad Town",
        "amenity": "hospital"
      }
    },
    {
      "type": "Feature",
      "geometry": {
        "type": "Point",
        "coordinates": [
          72.88801000000001,
          33.6410642
        ]
      },
      "properties": {
        "id": 2685020450,
        "name": "Baba Yasin orthopedic",
        "amenity": "hospital",
        "name:ur": "بابا یاسین"
      }
    },
    {
      "type": "Feature",
      "geometry": {
        "type": "Point",
        "coordinates": [
          73.2662464,
          34.508117600000006
        ]
      },
      "properties": {
        "id": 2694944942,
        "name": "LHV Hospital Dharyaal",
        "amenity": "hospital"
      }
    },
    {
      "type": "Feature",
      "geometry": {
        "type": "Point",
        "coordinates": [
          73.746133,
          32.949719300000005
        ]
      },
      "properties": {
        "id": 2776788099,
        "name": "Fazl-E-Illahi Hospital",
        "amenity": "hospital"
      }
    },
    {
      "type": "Feature",
      "geometry": {
        "type": "Point",
        "coordinates": [
          73.74490200000001,
          32.9463309
        ]
      },
      "properties": {
        "id": 2776917401,
        "name": "Yaqoob Hospital",
        "amenity": "hospital"
      }
    },
    {
      "type": "Feature",
      "geometry": {
        "type": "Point",
        "coordinates": [
          73.74041740000001,
          32.940091300000006
        ]
      },
      "properties": {
        "id": 2776942914,
        "name": "Alqasim Hospital",
        "amenity": "hospital"
      }
    },
    {
      "type": "Feature",
      "geometry": {
        "type": "Point",
        "coordinates": [
          73.7382067,
          32.938498
        ]
      },
      "properties": {
        "id": 2776947214,
        "name": "Pak Uk Hospital",
        "amenity": "hospital"
      }
    },
    {
      "type": "Feature",
      "geometry": {
        "type": "Point",
        "coordinates": [
          73.1001325,
          32.782388700000006
        ]
      },
      "properties": {
        "id": 2780713684,
        "name": "Akram Shaheed Memorial Clinic",
        "addr:city": "Basharat",
        "amenity": "clinic",
        "opening_hours": "0700-2000"
      }
    },
    {
      "type": "Feature",
      "geometry": {
        "type": "Point",
        "coordinates": [
          73.4170898,
          33.1320665
        ]
      },
      "properties": {
        "id": 2820859102,
        "name": "Ashrif Hospital Sohawa Distt Jhelum",
        "amenity": "hospital",
        "emergency": "yes"
      }
    },
    {
      "type": "Feature",
      "geometry": {
        "type": "Point",
        "coordinates": [
          73.4185221,
          33.1312939
        ]
      },
      "properties": {
        "id": 2820893410,
        "name": "Zubair",
        "addr:city": "Sohawa",
        "addr:street": "Grand Trunk Road",
        "amenity": "hospital",
        "designation": "Zubari Hospital Sohawa",
        "emergency": "yes"
      }
    },
    {
      "type": "Feature",
      "geometry": {
        "type": "Point",
        "coordinates": [
          71.84910690000001,
          33.515976300000005
        ]
      },
      "properties": {
        "id": 2859932648,
        "name": "BASIC HEALTH UNIT- Parshai",
        "amenity": "clinic"
      }
    },
    {
      "type": "Feature",
      "geometry": {
        "type": "Point",
        "coordinates": [
          73.13935160000001,
          33.1878389
        ]
      },
      "properties": {
        "id": 2896892197,
        "name": "Medical Store",
        "addr:city": "Daulatala",
        "addr:street": "Daulatala Rd",
        "amenity": "clinic"
      }
    },
    {
      "type": "Feature",
      "geometry": {
        "type": "Point",
        "coordinates": [
          70.6431448,
          30.703362900000002
        ]
      },
      "properties": {
        "id": 2898968612,
        "name": "Ammar General Hospital",
        "amenity": "hospital",
        "emergency": "no"
      }
    },
    {
      "type": "Feature",
      "geometry": {
        "type": "Point",
        "coordinates": [
          70.65307050000001,
          30.7118746
        ]
      },
      "properties": {
        "id": 2898971042,
        "name": "THQ",
        "amenity": "hospital",
        "emergency": "yes"
      }
    },
    {
      "type": "Feature",
      "geometry": {
        "type": "Point",
        "coordinates": [
          70.6419348,
          30.702992800000004
        ]
      },
      "properties": {
        "id": 2898971145,
        "name": "Dilshad Hospital",
        "amenity": "hospital"
      }
    },
    {
      "type": "Feature",
      "geometry": {
        "type": "Point",
        "coordinates": [
          73.08657720000001,
          31.4226762
        ]
      },
      "properties": {
        "id": 2913762181,
        "name": "Faisalabad Institute of Cardiology",
        "addr:city": "فیصل آباد",
        "addr:city:en": "Faisalabad",
        "addr:city:fr": "Faisalabad",
        "addr:city:pa": "ਫ਼ੈਸਲਾਬਾਦ",
        "addr:city:pnb": "فیصل آباد",
        "addr:city:ur": "فیصل آباد",
        "addr:street": "Club Road",
        "amenity": "hospital",
        "contact:email": "ms.ic.fsd@punjab.gov.pk",
        "contact:phone": "+92 41-9201529",
        "contact:website": "http://www.fic.gop.pk/",
        "healthcare": "hospital",
        "healthcare:speciality": "cardiology"
      }
    },
    {
      "type": "Feature",
      "geometry": {
        "type": "Point",
        "coordinates": [
          73.07195750000001,
          31.416341000000003
        ]
      },
      "properties": {
        "id": 2913763715,
        "name": "النور ہسپتال",
        "addr:city": "فیصل آباد",
        "amenity": "hospital",
        "healthcare": "hospital",
        "name:en": "Al Noor Hospital",
        "name:ur": "النور ہسپتال"
      }
    },
    {
      "type": "Feature",
      "geometry": {
        "type": "Point",
        "coordinates": [
          73.09893190000001,
          31.396668100000003
        ]
      },
      "properties": {
        "id": 2913833613,
        "name": "Niaz Medicare",
        "addr:city": "فیصل آباد",
        "addr:city:en": "Faisalabad",
        "addr:city:fr": "Faisalabad",
        "addr:city:pa": "ਫ਼ੈਸਲਾਬਾਦ",
        "addr:city:pnb": "فیصل آباد",
        "addr:city:ur": "فیصل آباد",
        "addr:street": "Main Blvd",
        "amenity": "clinic"
      }
    },
    {
      "type": "Feature",
      "geometry": {
        "type": "Point",
        "coordinates": [
          72.4337232,
          30.769497200000004
        ]
      },
      "properties": {
        "id": 2916948320,
        "name": "THQ Hospital",
        "amenity": "hospital",
        "designation": "THQ Hospital",
        "emergency": "yes",
        "name:ar": "مستشفى تي إتش كيو"
      }
    },
    {
      "type": "Feature",
      "geometry": {
        "type": "Point",
        "coordinates": [
          72.4612232,
          30.7488698
        ]
      },
      "properties": {
        "id": 2917434340,
        "name": "Dispensary",
        "amenity": "hospital",
        "emergency": "no"
      }
    },
    {
      "type": "Feature",
      "geometry": {
        "type": "Point",
        "coordinates": [
          73.4811957,
          31.577513800000002
        ]
      },
      "properties": {
        "id": 2920066439,
        "name": "Rashid Hospital",
        "amenity": "clinic"
      }
    },
    {
      "type": "Feature",
      "geometry": {
        "type": "Point",
        "coordinates": [
          73.48335820000001,
          31.5693872
        ]
      },
      "properties": {
        "id": 2920069525,
        "name": "Dr. Khalid Saleemi",
        "amenity": "clinic"
      }
    },
    {
      "type": "Feature",
      "geometry": {
        "type": "Point",
        "coordinates": [
          73.48290220000001,
          31.5731883
        ]
      },
      "properties": {
        "id": 2920070882,
        "name": "Dr. Mustafa",
        "amenity": "clinic"
      }
    },
    {
      "type": "Feature",
      "geometry": {
        "type": "Point",
        "coordinates": [
          74.1454599,
          32.3105345
        ]
      },
      "properties": {
        "id": 2961536113,
        "name": "Raza Medical Complex",
        "amenity": "hospital",
        "healthcare": "hospital"
      }
    },
    {
      "type": "Feature",
      "geometry": {
        "type": "Point",
        "coordinates": [
          74.14752650000001,
          32.3070132
        ]
      },
      "properties": {
        "id": 2961536114,
        "name": "Fatima Bashir Hospital",
        "amenity": "hospital",
        "emergency": "yes",
        "healthcare": "hospital",
        "healthcare:speciality": "general;emergency",
        "operator": "Dr. Amin",
        "phone": "+92 55 3880667"
      }
    },
    {
      "type": "Feature",
      "geometry": {
        "type": "Point",
        "coordinates": [
          76.8317834,
          34.8480733
        ]
      },
      "properties": {
        "id": 2973877903,
        "name": "Ayushman Arogya Mandir - Public Health Center Turtuk",
        "amenity": "hospital",
        "healthcare": "hospital",
        "operator": "Department of Public Health Service",
        "operator:type": "government"
      }
    },
    {
      "type": "Feature",
      "geometry": {
        "type": "Point",
        "coordinates": [
          68.8438919,
          27.7029424
        ]
      },
      "properties": {
        "id": 2987679194,
        "name": "Unnamed",
        "amenity": "clinic"
      }
    },
    {
      "type": "Feature",
      "geometry": {
        "type": "Point",
        "coordinates": [
          67.93232540000001,
          30.106247200000002
        ]
      },
      "properties": {
        "id": 3037408245,
        "name": "Labour Hospital",
        "amenity": "hospital",
        "emergency": "yes",
        "healthcare": "hospital"
      }
    },
    {
      "type": "Feature",
      "geometry": {
        "type": "Point",
        "coordinates": [
          70.91593610000001,
          29.387228600000004
        ]
      },
      "properties": {
        "id": 3058758054,
        "name": "Government Hospital",
        "amenity": "hospital"
      }
    },
    {
      "type": "Feature",
      "geometry": {
        "type": "Point",
        "coordinates": [
          72.0908203,
          32.067951300000004
        ]
      },
      "properties": {
        "id": 3102667433,
        "name": "Unnamed",
        "amenity": "hospital"
      }
    },
    {
      "type": "Feature",
      "geometry": {
        "type": "Point",
        "coordinates": [
          74.07493090000001,
          32.5770301
        ]
      },
      "properties": {
        "id": 3144548123,
        "name": "Ayesha Hospital",
        "addr:city": "gujrat",
        "addr:street": "Jinah Road",
        "amenity": "hospital"
      }
    },
    {
      "type": "Feature",
      "geometry": {
        "type": "Point",
        "coordinates": [
          74.074943,
          32.5708064
        ]
      },
      "properties": {
        "id": 3151303925,
        "name": "ayesha ilyas",
        "addr:city": "Gujrat",
        "addr:street": "Circular Road",
        "amenity": "hospital",
        "healthcare": "hospital"
      }
    },
    {
      "type": "Feature",
      "geometry": {
        "type": "Point",
        "coordinates": [
          74.0726202,
          32.5683584
        ]
      },
      "properties": {
        "id": 3151308187,
        "name": "بشیر ہسپتال",
        "amenity": "hospital",
        "healthcare": "hospital",
        "name:ar": "مستشفى البشير",
        "name:en": "Bashir Hospital",
        "name:ur": "بشیر ہسپتال"
      }
    },
    {
      "type": "Feature",
      "geometry": {
        "type": "Point",
        "coordinates": [
          74.06622780000001,
          32.567068400000004
        ]
      },
      "properties": {
        "id": 3151317382,
        "name": "Innayat Children Hospital",
        "addr:city": "Gujrat",
        "addr:street": "Sargodha Road",
        "amenity": "hospital",
        "healthcare": "hospital"
      }
    },
    {
      "type": "Feature",
      "geometry": {
        "type": "Point",
        "coordinates": [
          74.07539630000001,
          32.570881
        ]
      },
      "properties": {
        "id": 3151320736,
        "name": "ayesha ilyas hospital",
        "addr:city": "Gujrat",
        "addr:street": "Circular Road",
        "amenity": "hospital",
        "healthcare": "hospital"
      }
    },
    {
      "type": "Feature",
      "geometry": {
        "type": "Point",
        "coordinates": [
          74.08170220000001,
          32.572100500000005
        ]
      },
      "properties": {
        "id": 3151324285,
        "name": "الاحمد کلینک",
        "addr:city": "گجرات",
        "addr:street": "سرکلر روڈ",
        "amenity": "hospital",
        "healthcare": "hospital",
        "name:en": "Al-Ahmad Clinic",
        "name:ur": "الاحمد کلینک"
      }
    },
    {
      "type": "Feature",
      "geometry": {
        "type": "Point",
        "coordinates": [
          74.0731097,
          32.575631
        ]
      },
      "properties": {
        "id": 3151326945,
        "name": "Atiya Clinic",
        "addr:city": "Gujrat",
        "addr:street": "Qamar Sialvi Road",
        "amenity": "hospital"
      }
    },
    {
      "type": "Feature",
      "geometry": {
        "type": "Point",
        "coordinates": [
          74.07494430000001,
          32.5724802
        ]
      },
      "properties": {
        "id": 3151327373,
        "name": "Rehmat Hospital",
        "addr:city": "Gujrat",
        "addr:street": "Opposite to Wapda House Circular Road",
        "amenity": "hospital",
        "healthcare": "hospital"
      }
    },
    {
      "type": "Feature",
      "geometry": {
        "type": "Point",
        "coordinates": [
          74.0750007,
          32.5775816
        ]
      },
      "properties": {
        "id": 3151330068,
        "name": "Ali Children",
        "addr:city": "Gujrat",
        "addr:street": "Jinah Road",
        "amenity": "hospital"
      }
    },
    {
      "type": "Feature",
      "geometry": {
        "type": "Point",
        "coordinates": [
          74.07318210000001,
          32.583636500000004
        ]
      },
      "properties": {
        "id": 3151332349,
        "name": "Malik Haider Hospital",
        "addr:city": "Gujrat",
        "addr:street": "Ice Factory Road",
        "amenity": "hospital"
      }
    },
    {
      "type": "Feature",
      "geometry": {
        "type": "Point",
        "coordinates": [
          74.0842997,
          32.569534700000006
        ]
      },
      "properties": {
        "id": 3151336316,
        "name": "Zoha Clinic",
        "addr:city": "Gujrat",
        "addr:street": "Sultan Abad Road",
        "amenity": "hospital"
      }
    },
    {
      "type": "Feature",
      "geometry": {
        "type": "Point",
        "coordinates": [
          74.0803515,
          32.5792087
        ]
      },
      "properties": {
        "id": 3151337416,
        "name": "Mirza Akram Hospital",
        "addr:city": "Gujrat",
        "addr:street": "Court Road",
        "amenity": "hospital"
      }
    },
    {
      "type": "Feature",
      "geometry": {
        "type": "Point",
        "coordinates": [
          74.0795468,
          32.5959097
        ]
      },
      "properties": {
        "id": 3151339106,
        "name": "Gujrat Hospital",
        "addr:city": "Gujrat",
        "addr:street": "Bhimber Road",
        "amenity": "hospital"
      }
    },
    {
      "type": "Feature",
      "geometry": {
        "type": "Point",
        "coordinates": [
          74.07955220000001,
          32.596040800000004
        ]
      },
      "properties": {
        "id": 3151342385,
        "name": "Punjab Medical Center",
        "addr:city": "Gujrat",
        "addr:street": "Bhimber Road",
        "amenity": "hospital"
      }
    },
    {
      "type": "Feature",
      "geometry": {
        "type": "Point",
        "coordinates": [
          74.12885650000001,
          32.599204300000004
        ]
      },
      "properties": {
        "id": 3151345735,
        "name": "Habib Clinic",
        "addr:city": "Gujrat",
        "addr:street": "Jalalpur jattan Road",
        "amenity": "hospital"
      }
    },
    {
      "type": "Feature",
      "geometry": {
        "type": "Point",
        "coordinates": [
          74.07908010000001,
          32.6080934
        ]
      },
      "properties": {
        "id": 3151352472,
        "name": "Umeed Clinic and Maternity Hospital",
        "addr:city": "Gujrat",
        "addr:street": "Bhimber Road",
        "amenity": "hospital"
      }
    },
    {
      "type": "Feature",
      "geometry": {
        "type": "Point",
        "coordinates": [
          74.08199520000001,
          32.572519
        ]
      },
      "properties": {
        "id": 3151361192,
        "name": "Zain Clinic",
        "addr:city": "Gujrat",
        "addr:street": "Shadoula Road",
        "amenity": "doctors",
        "phone": "053-3513838"
      }
    },
    {
      "type": "Feature",
      "geometry": {
        "type": "Point",
        "coordinates": [
          74.08421600000001,
          32.5766779
        ]
      },
      "properties": {
        "id": 3151414107,
        "name": "Dr Waseem Butt",
        "addr:city": "Gujrat",
        "addr:street": "Jalalpur Link Road",
        "amenity": "doctors"
      }
    },
    {
      "type": "Feature",
      "geometry": {
        "type": "Point",
        "coordinates": [
          74.08046630000001,
          32.581794900000006
        ]
      },
      "properties": {
        "id": 3151672692,
        "name": "Dr Shabbir Mirza, Chest Specialist",
        "addr:city": "Gujrat",
        "addr:street": "Chenab Plaza Kachehri Road",
        "amenity": "doctors",
        "phone": "0300 6232011"
      }
    },
    {
      "type": "Feature",
      "geometry": {
        "type": "Point",
        "coordinates": [
          74.0766433,
          32.5845215
        ]
      },
      "properties": {
        "id": 3166500036,
        "name": "Doctor Hospital",
        "addr:city": "Gujrat",
        "addr:street": "Jail Road",
        "amenity": "hospital"
      }
    },
    {
      "type": "Feature",
      "geometry": {
        "type": "Point",
        "coordinates": [
          74.0765087,
          32.5837579
        ]
      },
      "properties": {
        "id": 3178797941,
        "name": "Hashmat Medical Complex",
        "addr:city": "Gujrat",
        "addr:street": "Jinah Road",
        "amenity": "hospital"
      }
    },
    {
      "type": "Feature",
      "geometry": {
        "type": "Point",
        "coordinates": [
          73.1025075,
          33.212422700000005
        ]
      },
      "properties": {
        "id": 3178814094,
        "name": "RHC",
        "addr:city": "Jatli",
        "addr:street": "Mandra Chakwal Road",
        "amenity": "clinic",
        "building:levels": "1",
        "healthcare": "clinic"
      }
    },
    {
      "type": "Feature",
      "geometry": {
        "type": "Point",
        "coordinates": [
          74.2127518,
          31.444529100000004
        ]
      },
      "properties": {
        "id": 3199397501,
        "name": "Akhtar Saeed Trust Teaching Hospital",
        "amenity": "hospital"
      }
    },
    {
      "type": "Feature",
      "geometry": {
        "type": "Point",
        "coordinates": [
          74.3949245,
          31.500104000000004
        ]
      },
      "properties": {
        "id": 3228646369,
        "name": "Fauji Foundation Hospital",
        "addr:city": "Lahore",
        "addr:street": "Bedian Road",
        "amenity": "hospital",
        "wikidata": "Q5438089",
        "wikipedia": "en:Fauji Foundation Hospitals"
      }
    },
    {
      "type": "Feature",
      "geometry": {
        "type": "Point",
        "coordinates": [
          74.33750930000001,
          31.475665400000004
        ]
      },
      "properties": {
        "id": 3237660889,
        "name": "Ittefaq Hospital",
        "addr:city": "Lahore",
        "addr:street": "Ferozepur Road",
        "amenity": "hospital",
        "healthcare": "hospital"
      }
    },
    {
      "type": "Feature",
      "geometry": {
        "type": "Point",
        "coordinates": [
          71.5435832,
          33.672882400000006
        ]
      },
      "properties": {
        "id": 3284153390,
        "name": "Government Civil Hosptial - Shini Kili.",
        "addr:city": "شنی کلے",
        "addr:street": "کوھاٹ - درہ روڈ",
        "amenity": "hospital",
        "emergency": "yes",
        "healthcare": "hospital",
        "healthcare:speciality": "general",
        "operator": "Govt. of Pakistan.",
        "operator:type": "government"
      }
    },
    {
      "type": "Feature",
      "geometry": {
        "type": "Point",
        "coordinates": [
          71.54306050000001,
          33.6630564
        ]
      },
      "properties": {
        "id": 3287095935,
        "name": "Unnamed",
        "amenity": "clinic"
      }
    },
    {
      "type": "Feature",
      "geometry": {
        "type": "Point",
        "coordinates": [
          71.54281270000001,
          33.660624000000006
        ]
      },
      "properties": {
        "id": 3287095939,
        "name": "Doctor Saleem Clinic",
        "amenity": "clinic",
        "short_name": "Dr. Saleem Clinic"
      }
    },
    {
      "type": "Feature",
      "geometry": {
        "type": "Point",
        "coordinates": [
          72.30186710000001,
          34.165444300000004
        ]
      },
      "properties": {
        "id": 3327035997,
        "name": "BHU Dagai",
        "addr:street": "Ghazi kot Road",
        "amenity": "hospital"
      }
    },
    {
      "type": "Feature",
      "geometry": {
        "type": "Point",
        "coordinates": [
          73.1335045,
          33.590581400000005
        ]
      },
      "properties": {
        "id": 3335659593,
        "name": "Dar Medical Complex",
        "addr:street": "Railway Road S",
        "amenity": "clinic"
      }
    },
    {
      "type": "Feature",
      "geometry": {
        "type": "Point",
        "coordinates": [
          70.31366750000001,
          28.417583000000004
        ]
      },
      "properties": {
        "id": 3347095148,
        "name": "شیخ زید ہسپتال",
        "addr:city": "رحیم یار خان",
        "amenity": "hospital",
        "healthcare": "hospital",
        "name:en": "Sheikh Zayid Hospital",
        "name:ur": "شیخ زید ہسپتال"
      }
    },
    {
      "type": "Feature",
      "geometry": {
        "type": "Point",
        "coordinates": [
          74.3150274,
          31.506439900000004
        ]
      },
      "properties": {
        "id": 3356330684,
        "name": "Naseer Hospital",
        "amenity": "hospital"
      }
    },
    {
      "type": "Feature",
      "geometry": {
        "type": "Point",
        "coordinates": [
          73.00897140000001,
          33.6144491
        ]
      },
      "properties": {
        "id": 3439434300,
        "name": "Msz Khan Clinic",
        "amenity": "clinic"
      }
    },
    {
      "type": "Feature",
      "geometry": {
        "type": "Point",
        "coordinates": [
          74.30340790000001,
          35.918456600000006
        ]
      },
      "properties": {
        "id": 3522756510,
        "name": "Unnamed",
        "amenity": "hospital"
      }
    },
    {
      "type": "Feature",
      "geometry": {
        "type": "Point",
        "coordinates": [
          74.3425802,
          32.3265339
        ]
      },
      "properties": {
        "id": 3552554434,
        "name": "Cheema Hospital",
        "amenity": "hospital",
        "healthcare": "hospital"
      }
    },
    {
      "type": "Feature",
      "geometry": {
        "type": "Point",
        "coordinates": [
          72.25797610000001,
          36.27165
        ]
      },
      "properties": {
        "id": 3559437851,
        "name": "Tehsil Headquarters Hospital",
        "amenity": "hospital"
      }
    },
    {
      "type": "Feature",
      "geometry": {
        "type": "Point",
        "coordinates": [
          73.77114850000001,
          33.9795966
        ]
      },
      "properties": {
        "id": 3564677594,
        "name": "Qamar Hospital Bagh",
        "amenity": "hospital"
      }
    },
    {
      "type": "Feature",
      "geometry": {
        "type": "Point",
        "coordinates": [
          73.79220280000001,
          33.97342930000001
        ]
      },
      "properties": {
        "id": 3564683673,
        "name": "DHQ Hospital",
        "amenity": "hospital"
      }
    },
    {
      "type": "Feature",
      "geometry": {
        "type": "Point",
        "coordinates": [
          72.78263620000001,
          33.743185000000004
        ]
      },
      "properties": {
        "id": 3652815784,
        "name": "Doctorz Hospital",
        "addr:city": "Wah Cantt",
        "addr:housenumber": "Nawababad",
        "addr:street": "Grand Trunk Road",
        "amenity": "hospital"
      }
    },
    {
      "type": "Feature",
      "geometry": {
        "type": "Point",
        "coordinates": [
          68.12236990000001,
          26.843932600000002
        ]
      },
      "properties": {
        "id": 3700123152,
        "name": "Agha Khan Medical Laboratory",
        "amenity": "clinic",
        "opening_hours": "08:00-17:00"
      }
    },
    {
      "type": "Feature",
      "geometry": {
        "type": "Point",
        "coordinates": [
          73.1052221,
          30.664452800000003
        ]
      },
      "properties": {
        "id": 3718795710,
        "name": "Maternity Hospital",
        "amenity": "hospital"
      }
    },
    {
      "type": "Feature",
      "geometry": {
        "type": "Point",
        "coordinates": [
          69.6765,
          28.433495900000004
        ]
      },
      "properties": {
        "id": 3823314814,
        "name": "Wapda Hospital Guddu",
        "amenity": "hospital",
        "operator": "Wapda Hospital"
      }
    },
    {
      "type": "Feature",
      "geometry": {
        "type": "Point",
        "coordinates": [
          71.44720860000001,
          32.422149000000005
        ]
      },
      "properties": {
        "id": 3901874381,
        "name": "PAEC Hospital",
        "amenity": "hospital",
        "emergency": "yes",
        "healthcare": "hospital"
      }
    },
    {
      "type": "Feature",
      "geometry": {
        "type": "Point",
        "coordinates": [
          74.49972020000001,
          31.5926873
        ]
      },
      "properties": {
        "id": 3940035722,
        "name": "Basical Health Unit, Dograi Kalan, Lahore",
        "amenity": "hospital",
        "emergency": "no",
        "operator": "Public"
      }
    },
    {
      "type": "Feature",
      "geometry": {
        "type": "Point",
        "coordinates": [
          74.52083510000001,
          31.566014900000003
        ]
      },
      "properties": {
        "id": 3940059891,
        "name": "Basic Health Unit (BHU), Chappa, Lahore",
        "amenity": "hospital",
        "operator": "Public"
      }
    },
    {
      "type": "Feature",
      "geometry": {
        "type": "Point",
        "coordinates": [
          74.54367970000001,
          31.52586
        ]
      },
      "properties": {
        "id": 3940075845,
        "name": "Basic Health Unit Manhala",
        "addr:city": "Lahore",
        "amenity": "hospital",
        "healthcare": "hospital",
        "name:ur": "بیسک ہیلتھ یونٹ منہالہ لاہور",
        "operator": "Public"
      }
    },
    {
      "type": "Feature",
      "geometry": {
        "type": "Point",
        "coordinates": [
          67.14877870000001,
          24.938157800000003
        ]
      },
      "properties": {
        "id": 3945273627,
        "name": "Dr Essa Clinical Laboratory",
        "amenity": "hospital",
        "healthcare": "hospital"
      }
    },
    {
      "type": "Feature",
      "geometry": {
        "type": "Point",
        "coordinates": [
          67.1493164,
          24.9388891
        ]
      },
      "properties": {
        "id": 3947043735,
        "name": "Al Rehman Hospital",
        "amenity": "hospital",
        "healthcare": "hospital"
      }
    },
    {
      "type": "Feature",
      "geometry": {
        "type": "Point",
        "coordinates": [
          70.9566556,
          30.971051100000004
        ]
      },
      "properties": {
        "id": 3955894401,
        "name": "DHQ Hospital",
        "addr:city": "Layyah",
        "addr:postcode": "32000",
        "addr:street": "College Rd",
        "amenity": "hospital",
        "emergency": "yes"
      }
    },
    {
      "type": "Feature",
      "geometry": {
        "type": "Point",
        "coordinates": [
          71.7411101,
          35.480260300000005
        ]
      },
      "properties": {
        "id": 3993237038,
        "name": "Hospital",
        "amenity": "hospital"
      }
    },
    {
      "type": "Feature",
      "geometry": {
        "type": "Point",
        "coordinates": [
          72.52747330000001,
          36.5018528
        ]
      },
      "properties": {
        "id": 3993298626,
        "name": "Aga Khan Family Health Center Khot",
        "amenity": "doctors"
      }
    },
    {
      "type": "Feature",
      "geometry": {
        "type": "Point",
        "coordinates": [
          73.59654950000001,
          30.876566500000003
        ]
      },
      "properties": {
        "id": 3994569057,
        "name": "Dr.Tanseeb Hospital",
        "amenity": "hospital",
        "emergency": "yes",
        "name:ar": "مستشفى الدكتور تنصيب"
      }
    },
    {
      "type": "Feature",
      "geometry": {
        "type": "Point",
        "coordinates": [
          73.2744627,
          36.1619028
        ]
      },
      "properties": {
        "id": 3994783457,
        "name": "Dispensary",
        "amenity": "doctors"
      }
    },
    {
      "type": "Feature",
      "geometry": {
        "type": "Point",
        "coordinates": [
          73.2745675,
          36.161923900000005
        ]
      },
      "properties": {
        "id": 3994783458,
        "name": "Dispensary",
        "amenity": "doctors"
      }
    },
    {
      "type": "Feature",
      "geometry": {
        "type": "Point",
        "coordinates": [
          73.34929190000001,
          36.0829511
        ]
      },
      "properties": {
        "id": 3995199741,
        "name": "Govt. Dispensary",
        "amenity": "doctors"
      }
    },
    {
      "type": "Feature",
      "geometry": {
        "type": "Point",
        "coordinates": [
          73.3776969,
          36.2447346
        ]
      },
      "properties": {
        "id": 3996661859,
        "name": "Health Centre Jandrote",
        "amenity": "doctors"
      }
    },
    {
      "type": "Feature",
      "geometry": {
        "type": "Point",
        "coordinates": [
          73.4451753,
          36.2303276
        ]
      },
      "properties": {
        "id": 3997211761,
        "name": "Family Planning Hospital",
        "amenity": "hospital"
      }
    },
    {
      "type": "Feature",
      "geometry": {
        "type": "Point",
        "coordinates": [
          73.44547960000001,
          36.2303842
        ]
      },
      "properties": {
        "id": 3997211762,
        "name": "Family Planning Hospital",
        "amenity": "hospital"
      }
    },
    {
      "type": "Feature",
      "geometry": {
        "type": "Point",
        "coordinates": [
          73.44566130000001,
          36.2305141
        ]
      },
      "properties": {
        "id": 3997211763,
        "name": "Family Planning Hospital",
        "amenity": "hospital"
      }
    },
    {
      "type": "Feature",
      "geometry": {
        "type": "Point",
        "coordinates": [
          73.445885,
          36.2305706
        ]
      },
      "properties": {
        "id": 3997211764,
        "name": "Family Planning Hospital",
        "amenity": "hospital"
      }
    },
    {
      "type": "Feature",
      "geometry": {
        "type": "Point",
        "coordinates": [
          73.4454676,
          36.2306644
        ]
      },
      "properties": {
        "id": 3997211765,
        "name": "Family Planning Hospital",
        "amenity": "hospital"
      }
    },
    {
      "type": "Feature",
      "geometry": {
        "type": "Point",
        "coordinates": [
          73.44500810000001,
          36.2306692
        ]
      },
      "properties": {
        "id": 3997211766,
        "name": "Family Planning Hospital",
        "amenity": "hospital"
      }
    },
    {
      "type": "Feature",
      "geometry": {
        "type": "Point",
        "coordinates": [
          73.44572980000001,
          36.2306801
        ]
      },
      "properties": {
        "id": 3997211767,
        "name": "Family Planning Hospital",
        "amenity": "hospital"
      }
    },
    {
      "type": "Feature",
      "geometry": {
        "type": "Point",
        "coordinates": [
          73.44534610000001,
          36.230759400000004
        ]
      },
      "properties": {
        "id": 3997211768,
        "name": "Family Planning Hospital",
        "amenity": "hospital"
      }
    },
    {
      "type": "Feature",
      "geometry": {
        "type": "Point",
        "coordinates": [
          71.788622,
          35.8517701
        ]
      },
      "properties": {
        "id": 4003644278,
        "name": "Unnamed",
        "amenity": "hospital",
        "healthcare": "hospital"
      }
    },
    {
      "type": "Feature",
      "geometry": {
        "type": "Point",
        "coordinates": [
          74.3547432,
          35.915361100000005
        ]
      },
      "properties": {
        "id": 4003853044,
        "name": "Unnamed",
        "amenity": "doctors"
      }
    },
    {
      "type": "Feature",
      "geometry": {
        "type": "Point",
        "coordinates": [
          71.57756610000001,
          35.996935400000005
        ]
      },
      "properties": {
        "id": 4007456166,
        "name": "Hospital",
        "amenity": "hospital"
      }
    },
    {
      "type": "Feature",
      "geometry": {
        "type": "Point",
        "coordinates": [
          74.7078359,
          35.839058
        ]
      },
      "properties": {
        "id": 4009344980,
        "name": "Unnamed",
        "amenity": "doctors"
      }
    },
    {
      "type": "Feature",
      "geometry": {
        "type": "Point",
        "coordinates": [
          73.40507600000001,
          36.2777886
        ]
      },
      "properties": {
        "id": 4012261358,
        "name": "Unnamed",
        "amenity": "doctors"
      }
    },
    {
      "type": "Feature",
      "geometry": {
        "type": "Point",
        "coordinates": [
          73.38314270000001,
          36.3058404
        ]
      },
      "properties": {
        "id": 4012410028,
        "name": "Family Health Centre",
        "amenity": "doctors"
      }
    },
    {
      "type": "Feature",
      "geometry": {
        "type": "Point",
        "coordinates": [
          73.3833398,
          36.305873000000005
        ]
      },
      "properties": {
        "id": 4012410029,
        "name": "Family Health Centre",
        "amenity": "doctors"
      }
    },
    {
      "type": "Feature",
      "geometry": {
        "type": "Point",
        "coordinates": [
          73.3633195,
          36.326779800000004
        ]
      },
      "properties": {
        "id": 4012569101,
        "name": "Unnamed",
        "amenity": "doctors"
      }
    },
    {
      "type": "Feature",
      "geometry": {
        "type": "Point",
        "coordinates": [
          73.33260010000001,
          36.3708346
        ]
      },
      "properties": {
        "id": 4013954230,
        "name": "Health Centre",
        "amenity": "doctors"
      }
    },
    {
      "type": "Feature",
      "geometry": {
        "type": "Point",
        "coordinates": [
          73.29279500000001,
          36.3963886
        ]
      },
      "properties": {
        "id": 4014587439,
        "name": "Unnamed",
        "amenity": "doctors"
      }
    },
    {
      "type": "Feature",
      "geometry": {
        "type": "Point",
        "coordinates": [
          72.23568490000001,
          36.306775300000005
        ]
      },
      "properties": {
        "id": 4014652766,
        "name": "Hospital",
        "amenity": "hospital"
      }
    },
    {
      "type": "Feature",
      "geometry": {
        "type": "Point",
        "coordinates": [
          73.37428790000001,
          36.420749400000005
        ]
      },
      "properties": {
        "id": 4016198501,
        "name": "Unnamed",
        "amenity": "doctors"
      }
    },
    {
      "type": "Feature",
      "geometry": {
        "type": "Point",
        "coordinates": [
          73.444658,
          36.422148
        ]
      },
      "properties": {
        "id": 4016234121,
        "name": "Unnamed",
        "amenity": "hospital",
        "healthcare": "hospital"
      }
    },
    {
      "type": "Feature",
      "geometry": {
        "type": "Point",
        "coordinates": [
          73.2840089,
          36.4795949
        ]
      },
      "properties": {
        "id": 4019335590,
        "name": "Unnamed",
        "amenity": "doctors"
      }
    },
    {
      "type": "Feature",
      "geometry": {
        "type": "Point",
        "coordinates": [
          73.269283,
          36.487949300000004
        ]
      },
      "properties": {
        "id": 4019656062,
        "name": "Hospital",
        "amenity": "hospital"
      }
    },
    {
      "type": "Feature",
      "geometry": {
        "type": "Point",
        "coordinates": [
          73.41380020000001,
          36.5131225
        ]
      },
      "properties": {
        "id": 4020903085,
        "name": "Unnamed",
        "amenity": "doctors",
        "healthcare": "doctor"
      }
    },
    {
      "type": "Feature",
      "geometry": {
        "type": "Point",
        "coordinates": [
          73.41283050000001,
          36.513207200000004
        ]
      },
      "properties": {
        "id": 4020903101,
        "name": "Unnamed",
        "amenity": "doctors",
        "healthcare": "doctor"
      }
    },
    {
      "type": "Feature",
      "geometry": {
        "type": "Point",
        "coordinates": [
          73.4296516,
          36.5422432
        ]
      },
      "properties": {
        "id": 4020927524,
        "name": "Unnamed",
        "amenity": "doctors",
        "healthcare": "doctor"
      }
    },
    {
      "type": "Feature",
      "geometry": {
        "type": "Point",
        "coordinates": [
          73.4482426,
          36.644341600000004
        ]
      },
      "properties": {
        "id": 4023016155,
        "name": "Unnamed",
        "amenity": "doctors",
        "healthcare": "doctor"
      }
    },
    {
      "type": "Feature",
      "geometry": {
        "type": "Point",
        "coordinates": [
          74.48289150000001,
          36.240654500000005
        ]
      },
      "properties": {
        "id": 4025140838,
        "name": "Unnamed",
        "amenity": "hospital"
      }
    },
    {
      "type": "Feature",
      "geometry": {
        "type": "Point",
        "coordinates": [
          74.53388100000001,
          36.2619838
        ]
      },
      "properties": {
        "id": 4025487978,
        "name": "Unnamed",
        "amenity": "doctors"
      }
    },
    {
      "type": "Feature",
      "geometry": {
        "type": "Point",
        "coordinates": [
          74.5339045,
          36.2621071
        ]
      },
      "properties": {
        "id": 4025488141,
        "name": "Unnamed",
        "amenity": "doctors"
      }
    },
    {
      "type": "Feature",
      "geometry": {
        "type": "Point",
        "coordinates": [
          74.5403878,
          36.2644808
        ]
      },
      "properties": {
        "id": 4025490065,
        "name": "Unnamed",
        "amenity": "doctors"
      }
    },
    {
      "type": "Feature",
      "geometry": {
        "type": "Point",
        "coordinates": [
          74.5313716,
          36.251149500000004
        ]
      },
      "properties": {
        "id": 4025868238,
        "name": "Unnamed",
        "amenity": "doctors"
      }
    },
    {
      "type": "Feature",
      "geometry": {
        "type": "Point",
        "coordinates": [
          72.4579339,
          36.08501570000001
        ]
      },
      "properties": {
        "id": 4025996388,
        "name": "Hospital",
        "amenity": "hospital"
      }
    },
    {
      "type": "Feature",
      "geometry": {
        "type": "Point",
        "coordinates": [
          74.65226290000001,
          36.3048991
        ]
      },
      "properties": {
        "id": 4027215844,
        "name": "Unnamed",
        "amenity": "doctors"
      }
    },
    {
      "type": "Feature",
      "geometry": {
        "type": "Point",
        "coordinates": [
          74.65499630000001,
          36.3061962
        ]
      },
      "properties": {
        "id": 4027216320,
        "name": "Unnamed",
        "amenity": "doctors"
      }
    },
    {
      "type": "Feature",
      "geometry": {
        "type": "Point",
        "coordinates": [
          74.66553560000001,
          36.327246900000006
        ]
      },
      "properties": {
        "id": 4027655078,
        "name": "Unnamed",
        "amenity": "doctors",
        "healthcare": "doctor"
      }
    },
    {
      "type": "Feature",
      "geometry": {
        "type": "Point",
        "coordinates": [
          74.6820333,
          36.3187307
        ]
      },
      "properties": {
        "id": 4027917665,
        "name": "Unnamed",
        "amenity": "doctors"
      }
    },
    {
      "type": "Feature",
      "geometry": {
        "type": "Point",
        "coordinates": [
          74.73422950000001,
          36.305846700000004
        ]
      },
      "properties": {
        "id": 4027980705,
        "name": "Unnamed",
        "amenity": "doctors"
      }
    },
    {
      "type": "Feature",
      "geometry": {
        "type": "Point",
        "coordinates": [
          74.7113448,
          36.2757662
        ]
      },
      "properties": {
        "id": 4029402246,
        "name": "Unnamed",
        "amenity": "doctors"
      }
    },
    {
      "type": "Feature",
      "geometry": {
        "type": "Point",
        "coordinates": [
          74.72377440000001,
          36.2777904
        ]
      },
      "properties": {
        "id": 4029535476,
        "name": "Unnamed",
        "amenity": "hospital"
      }
    },
    {
      "type": "Feature",
      "geometry": {
        "type": "Point",
        "coordinates": [
          74.7470148,
          36.2566074
        ]
      },
      "properties": {
        "id": 4029635437,
        "name": "Unnamed",
        "amenity": "doctors"
      }
    },
    {
      "type": "Feature",
      "geometry": {
        "type": "Point",
        "coordinates": [
          74.7602248,
          36.223646300000006
        ]
      },
      "properties": {
        "id": 4029782121,
        "name": "Unnamed",
        "amenity": "doctors"
      }
    },
    {
      "type": "Feature",
      "geometry": {
        "type": "Point",
        "coordinates": [
          74.9916481,
          36.171204700000004
        ]
      },
      "properties": {
        "id": 4032297530,
        "name": "Unnamed",
        "amenity": "doctors"
      }
    },
    {
      "type": "Feature",
      "geometry": {
        "type": "Point",
        "coordinates": [
          74.86164470000001,
          36.388184900000006
        ]
      },
      "properties": {
        "id": 4032597994,
        "name": "Unnamed",
        "amenity": "doctors"
      }
    },
    {
      "type": "Feature",
      "geometry": {
        "type": "Point",
        "coordinates": [
          74.86145710000001,
          36.3882551
        ]
      },
      "properties": {
        "id": 4032598034,
        "name": "Unnamed",
        "amenity": "doctors"
      }
    },
    {
      "type": "Feature",
      "geometry": {
        "type": "Point",
        "coordinates": [
          74.86132260000001,
          36.3883707
        ]
      },
      "properties": {
        "id": 4032598087,
        "name": "Unnamed",
        "amenity": "doctors"
      }
    },
    {
      "type": "Feature",
      "geometry": {
        "type": "Point",
        "coordinates": [
          74.8612581,
          36.3884995
        ]
      },
      "properties": {
        "id": 4032598254,
        "name": "Unnamed",
        "amenity": "doctors"
      }
    },
    {
      "type": "Feature",
      "geometry": {
        "type": "Point",
        "coordinates": [
          74.86225730000001,
          36.4058507
        ]
      },
      "properties": {
        "id": 4032693343,
        "name": "Unnamed",
        "amenity": "doctors"
      }
    },
    {
      "type": "Feature",
      "geometry": {
        "type": "Point",
        "coordinates": [
          74.86120810000001,
          36.6153618
        ]
      },
      "properties": {
        "id": 4034150922,
        "name": "Unnamed",
        "amenity": "doctors"
      }
    },
    {
      "type": "Feature",
      "geometry": {
        "type": "Point",
        "coordinates": [
          74.8643437,
          36.6179238
        ]
      },
      "properties": {
        "id": 4034151385,
        "name": "Unnamed",
        "amenity": "doctors"
      }
    },
    {
      "type": "Feature",
      "geometry": {
        "type": "Point",
        "coordinates": [
          74.8339176,
          36.677432700000004
        ]
      },
      "properties": {
        "id": 4034508870,
        "name": "Health Centre",
        "amenity": "doctors"
      }
    },
    {
      "type": "Feature",
      "geometry": {
        "type": "Point",
        "coordinates": [
          74.83410230000001,
          36.677457600000004
        ]
      },
      "properties": {
        "id": 4034508871,
        "name": "Health Centre",
        "amenity": "doctors"
      }
    },