{
  "type": "FeatureCollection",
  "features": [
    {
      "type": "Feature",
      "geometry": {
        "type": "Point",
        "coordinates": [
          73.03626530000001,
          33.682233100000005
        ]
      },
      "properties": {
        "id": 275772610,
        "name": "Laraib Inn",
        "addr:city:ar": "إسلام آباد",
        "addr:city:en": "Islamabad",
        "addr:city:ks": "اِسلام آبادٖ",
        "addr:city:pnb": "اسلام آباد",
        "addr:city:ps": "اسلام آباد",
        "addr:city:sd": "اسلام آباد",
        "addr:city:ur": "اسلام آباد",
        "addr:street": "Rohtas Road",
        "source": "Yahoo + Local Knowledge",
        "tourism": "hotel"
      }
    },
    {
      "type": "Feature",
      "geometry": {
        "type": "Point",
        "coordinates": [
          73.111107,
          33.6898423
        ]
      },
      "properties": {
        "id": 277504376,
        "name": "ایڈونچر ان",
        "name:en": "Adventure Inn",
        "name:ur": "ایڈونچر ان",
        "tourism": "motel"
      }
    },
    {
      "type": "Feature",
      "geometry": {
        "type": "Point",
        "coordinates": [
          72.9330963,
          33.994134
        ]
      },
      "properties": {
        "id": 296360951,
        "name": "Qureshi Hotel",
        "tourism": "hotel"
      }
    },
    {
      "type": "Feature",
      "geometry": {
        "type": "Point",
        "coordinates": [
          72.94315630000001,
          33.995646300000004
        ]
      },
      "properties": {
        "id": 296403549,
        "name": "Aafaq Hotel",
        "tourism": "hotel"
      }
    },
    {
      "type": "Feature",
      "geometry": {
        "type": "Point",
        "coordinates": [
          72.9274738,
          33.995152100000006
        ]
      },
      "properties": {
        "id": 297426155,
        "name": "Kalash Hotel",
        "fixme": "please check if still there",
        "tourism": "hotel"
      }
    },
    {
      "type": "Feature",
      "geometry": {
        "type": "Point",
        "coordinates": [
          75.45574,
          35.4275657
        ]
      },
      "properties": {
        "id": 298958179,
        "name": "Shangrila Resort",
        "tourism": "hotel",
        "website": "https://shangrilaresorts.com.pk/"
      }
    },
    {
      "type": "Feature",
      "geometry": {
        "type": "Point",
        "coordinates": [
          72.86156380000001,
          34.8997352
        ]
      },
      "properties": {
        "id": 299014484,
        "name": "PTDC Motel Baesham",
        "addr:city": "Besham",
        "tourism": "hotel"
      }
    },
    {
      "type": "Feature",
      "geometry": {
        "type": "Point",
        "coordinates": [
          72.8628168,
          34.906922300000005
        ]
      },
      "properties": {
        "id": 299014485,
        "name": "Besham Rana Lodge",
        "tourism": "hotel"
      }
    },
    {
      "type": "Feature",
      "geometry": {
        "type": "Point",
        "coordinates": [
          72.8898819,
          36.1619529
        ]
      },
      "properties": {
        "id": 299073131,
        "name": "Phander River View Hotel",
        "tourism": "guest_house"
      }
    },
    {
      "type": "Feature",
      "geometry": {
        "type": "Point",
        "coordinates": [
          71.8618364,
          35.2320329
        ]
      },
      "properties": {
        "id": 302217631,
        "name": "PTDC Hotel",
        "tourism": "hotel"
      }
    },
    {
      "type": "Feature",
      "geometry": {
        "type": "Point",
        "coordinates": [
          74.3000131,
          31.503957800000002
        ]
      },
      "properties": {
        "id": 526681857,
        "name": "PU Guest House",
        "tourism": "guest_house"
      }
    },
    {
      "type": "Feature",
      "geometry": {
        "type": "Point",
        "coordinates": [
          74.36924490000001,
          35.899349400000006
        ]
      },
      "properties": {
        "id": 571786778,
        "name": "Gilgit",
        "tourism": "hotel"
      }
    },
    {
      "type": "Feature",
      "geometry": {
        "type": "Point",
        "coordinates": [
          61.55713050000001,
          28.9743476
        ]
      },
      "properties": {
        "id": 734881654,
        "name": "پی ٹی ڈی سی موٹل",
        "addr:city": "تفتان",
        "name:en": "PTDC Motel",
        "name:ur": "پی ٹی ڈی سی موٹل",
        "tourism": "motel"
      }
    },
    {
      "type": "Feature",
      "geometry": {
        "type": "Point",
        "coordinates": [
          67.0049321,
          30.189352500000002
        ]
      },
      "properties": {
        "id": 734882750,
        "name": "Bloomstar Hotel",
        "internet_access": "wlan",
        "name:en": "Bloomstar 20$ / 8$ camping",
        "tourism": "hotel"
      }
    },
    {
      "type": "Feature",
      "geometry": {
        "type": "Point",
        "coordinates": [
          67.0036764,
          30.189299600000002
        ]
      },
      "properties": {
        "id": 734889373,
        "name": "Unnamed",
        "tourism": "hotel"
      }
    },
    {
      "type": "Feature",
      "geometry": {
        "type": "Point",
        "coordinates": [
          69.4454633,
          31.3456104
        ]
      },
      "properties": {
        "id": 740503747,
        "name": "Unnamed",
        "tourism": "hotel"
      }
    },
    {
      "type": "Feature",
      "geometry": {
        "type": "Point",
        "coordinates": [
          68.5545441,
          30.395341200000004
        ]
      },
      "properties": {
        "id": 740547370,
        "name": "PTDC Motel",
        "tourism": "motel"
      }
    },
    {
      "type": "Feature",
      "geometry": {
        "type": "Point",
        "coordinates": [
          71.66564100000001,
          29.4059662
        ]
      },
      "properties": {
        "id": 742042809,
        "name": "Eastern Pearl Motel",
        "addr:city": "Bahawalpur",
        "addr:street": "Model Town Rd",
        "tourism": "hotel"
      }
    },
    {
      "type": "Feature",
      "geometry": {
        "type": "Point",
        "coordinates": [
          70.92783820000001,
          31.824373200000004
        ]
      },
      "properties": {
        "id": 742046790,
        "name": "Midway Hotel",
        "description": "Expensive, but comfy with AC. Probably THE place to stay when it's 47 Celsius and you're sick.",
        "tourism": "hotel"
      }
    },
    {
      "type": "Feature",
      "geometry": {
        "type": "Point",
        "coordinates": [
          71.563989,
          34.0085611
        ]
      },
      "properties": {
        "id": 742145824,
        "name": "Rose Hotel",
        "tourism": "hotel"
      }
    },
    {
      "type": "Feature",
      "geometry": {
        "type": "Point",
        "coordinates": [
          71.5734886,
          34.0160404
        ]
      },
      "properties": {
        "id": 742146088,
        "name": "Hidayat Hotel",
        "tourism": "hotel"
      }
    },
    {
      "type": "Feature",
      "geometry": {
        "type": "Point",
        "coordinates": [
          73.73084320000001,
          32.907264500000004
        ]
      },
      "properties": {
        "id": 746029578,
        "name": "Tulip Hotel",
        "tourism": "hotel"
      }
    },
    {
      "type": "Feature",
      "geometry": {
        "type": "Point",
        "coordinates": [
          74.101889,
          35.431091800000004
        ]
      },
      "properties": {
        "id": 746256633,
        "name": "Unnamed",
        "tourism": "hotel"
      }
    },
    {
      "type": "Feature",
      "geometry": {
        "type": "Point",
        "coordinates": [
          75.6366897,
          35.238565900000005
        ]
      },
      "properties": {
        "id": 746261177,
        "name": "Satpara Lake View Hotel",
        "tourism": "hotel"
      }
    },
    {
      "type": "Feature",
      "geometry": {
        "type": "Point",
        "coordinates": [
          75.6515447,
          35.2949793
        ]
      },
      "properties": {
        "id": 746264669,
        "name": "Concordia Motel",
        "tourism": "motel"
      }
    },
    {
      "type": "Feature",
      "geometry": {
        "type": "Point",
        "coordinates": [
          75.02464020000001,
          35.632062600000005
        ]
      },
      "properties": {
        "id": 746264678,
        "name": "PTDC Motel Istak",
        "addr:city": "Istak",
        "addr:housenumber": "PTDC Motel Istak near Istak Nala",
        "addr:street": "Gilgit - Skardu Highway",
        "tourism": "hotel"
      }
    },
    {
      "type": "Feature",
      "geometry": {
        "type": "Point",
        "coordinates": [
          74.8197403,
          36.691394800000005
        ]
      },
      "properties": {
        "id": 746329524,
        "name": "PTDC Motel",
        "addr:city": "Sost",
        "tourism": "hotel"
      }
    },
    {
      "type": "Feature",
      "geometry": {
        "type": "Point",
        "coordinates": [
          74.8824756,
          36.482779900000004
        ]
      },
      "properties": {
        "id": 746330607,
        "name": "Passu Peak Inn",
        "tourism": "guest_house"
      }
    },
    {
      "type": "Feature",
      "geometry": {
        "type": "Point",
        "coordinates": [
          76.34325770000001,
          35.164566300000004
        ]
      },
      "properties": {
        "id": 746970500,
        "name": "Khaplu Inn",
        "tourism": "guest_house"
      }
    },
    {
      "type": "Feature",
      "geometry": {
        "type": "Point",
        "coordinates": [
          71.6602682,
          35.6858945
        ]
      },
      "properties": {
        "id": 747660059,
        "name": "Kalak Sissojak Guest House",
        "tourism": "guest_house"
      }
    },
    {
      "type": "Feature",
      "geometry": {
        "type": "Point",
        "coordinates": [
          71.84001970000001,
          34.820704600000006
        ]
      },
      "properties": {
        "id": 747664433,
        "name": "Dir Continental Hotel",
        "tourism": "hotel"
      }
    },
    {
      "type": "Feature",
      "geometry": {
        "type": "Point",
        "coordinates": [
          73.1958034,
          34.3337207
        ]
      },
      "properties": {
        "id": 747675849,
        "name": "Unnamed",
        "addr:city": "مانسہرہ",
        "tourism": "hotel"
      }
    },
    {
      "type": "Feature",
      "geometry": {
        "type": "Point",
        "coordinates": [
          74.3139228,
          35.9223043
        ]
      },
      "properties": {
        "id": 747696344,
        "name": "مدینہ گیسٹ ہاؤس",
        "addr:city": "گلگت",
        "name:en": "Madina Guesthouse",
        "name:ur": "مدینہ گیسٹ ہاؤس",
        "tourism": "guest_house"
      }
    },
    {
      "type": "Feature",
      "geometry": {
        "type": "Point",
        "coordinates": [
          74.61534660000001,
          36.3078075
        ]
      },
      "properties": {
        "id": 880527503,
        "name": "Unnamed",
        "tourism": "hotel"
      }
    },
    {
      "type": "Feature",
      "geometry": {
        "type": "Point",
        "coordinates": [
          73.0462315,
          33.72519500000001
        ]
      },
      "properties": {
        "id": 954474450,
        "name": "Horizon",
        "fax": "051-2851269",
        "internet_access": "yes",
        "internet_access:fee": "no",
        "phone": "051-2851267",
        "tourism": "guest_house"
      }
    },
    {
      "type": "Feature",
      "geometry": {
        "type": "Point",
        "coordinates": [
          73.05654510000001,
          33.721115100000006
        ]
      },
      "properties": {
        "id": 977852301,
        "name": "Hill View Hotel",
        "addr:city": "اسلام آباد",
        "addr:city:ar": "إسلام آباد",
        "addr:city:en": "Islamabad",
        "addr:city:ks": "اِسلام آبادٖ",
        "addr:city:pnb": "اسلام آباد",
        "addr:city:ps": "اسلام آباد",
        "addr:city:sd": "اسلام آباد",
        "addr:city:ur": "اسلام آباد",
        "addr:street": "F 7 Markaz",
        "email": "info@hotelhillview.net",
        "fax": "+92-51-2608520",
        "internet_access": "yes",
        "phone": "+92-51-8319000",
        "stars": "2",
        "tourism": "hotel",
        "website": "https://hotelhillview.net/"
      }
    },
    {
      "type": "Feature",
      "geometry": {
        "type": "Point",
        "coordinates": [
          73.0522799,
          33.598016900000005
        ]
      },
      "properties": {
        "id": 1042607910,
        "name": "Hotel Avanti",
        "stars": "2",
        "tourism": "hotel"
      }
    },
    {
      "type": "Feature",
      "geometry": {
        "type": "Point",
        "coordinates": [
          75.6235123,
          35.3024688
        ]
      },
      "properties": {
        "id": 1081224046,
        "name": "Hotel Mashabrum",
        "addr:city": "Skardu",
        "addr:housename": "Hotel Mashabrum",
        "addr:postcode": "Baltistan",
        "addr:street": "College Road",
        "email": "info@hotelmashabrum.com",
        "fax": "+ 92 05815 50397",
        "phone": "+ 92 05815 450395; + 92 05815 450396",
        "tourism": "hotel",
        "website": "http://www.hotelmashabrum.com/introduction.html"
      }
    },
    {
      "type": "Feature",
      "geometry": {
        "type": "Point",
        "coordinates": [
          73.20312510000001,
          35.357347000000004
        ]
      },
      "properties": {
        "id": 1081224051,
        "name": "Khyber Lodge",
        "tourism": "hotel"
      }
    },
    {
      "type": "Feature",
      "geometry": {
        "type": "Point",
        "coordinates": [
          71.4444593,
          30.1974109
        ]
      },
      "properties": {
        "id": 1116964219,
        "name": "Executive Guest House",
        "source": "gps",
        "tourism": "guest_house"
      }
    },
    {
      "type": "Feature",
      "geometry": {
        "type": "Point",
        "coordinates": [
          70.3123923,
          28.421923300000003
        ]
      },
      "properties": {
        "id": 1145891633,
        "name": "Lamis Hotel",
        "tourism": "hotel"
      }
    },
    {
      "type": "Feature",
      "geometry": {
        "type": "Point",
        "coordinates": [
          66.9956082,
          24.8438592
        ]
      },
      "properties": {
        "id": 1147219109,
        "name": "Avari Beach Luxury Hotel",
        "addr:city": "Karachi",
        "addr:housenumber": "Lalazar",
        "addr:province": "Sindh",
        "addr:street": "Beach Hotel Road",
        "source": "http://www.avari.com/property/beach-luxury",
        "tourism": "hotel"
      }
    },
    {
      "type": "Feature",
      "geometry": {
        "type": "Point",
        "coordinates": [
          71.5822004,
          34.0148846
        ]
      },
      "properties": {
        "id": 1223111906,
        "name": "Shawal Hotel",
        "source": "photograph",
        "tourism": "hotel"
      }
    },
    {
      "type": "Feature",
      "geometry": {
        "type": "Point",
        "coordinates": [
          71.50218550000001,
          33.9902134
        ]
      },
      "properties": {
        "id": 1223943705,
        "name": "Blue Palace",
        "tourism": "hotel"
      }
    },
    {
      "type": "Feature",
      "geometry": {
        "type": "Point",
        "coordinates": [
          71.50013630000001,
          33.998992900000005
        ]
      },
      "properties": {
        "id": 1223945822,
        "name": "Revoli Guest House",
        "tourism": "guest_house"
      }
    },
    {
      "type": "Feature",
      "geometry": {
        "type": "Point",
        "coordinates": [
          71.5012842,
          33.997311800000006
        ]
      },
      "properties": {
        "id": 1223958742,
        "name": "Inter Con Guest House",
        "tourism": "guest_house"
      }
    },
    {
      "type": "Feature",
      "geometry": {
        "type": "Point",
        "coordinates": [
          71.508882,
          34.0072046
        ]
      },
      "properties": {
        "id": 1224121359,
        "name": "Grand Hotel",
        "tourism": "hotel"
      }
    },
    {
      "type": "Feature",
      "geometry": {
        "type": "Point",
        "coordinates": [
          71.55113200000001,
          34.003971500000006
        ]
      },
      "properties": {
        "id": 1226368132,
        "name": "پشاور پریس کلب",
        "addr:city": "پشاور",
        "name:en": "Peshawar Press Club",
        "name:ur": "پشاور پریس کلب",
        "tourism": "guest_house"
      }
    },
    {
      "type": "Feature",
      "geometry": {
        "type": "Point",
        "coordinates": [
          73.09285000000001,
          33.716233300000006
        ]
      },
      "properties": {
        "id": 1240999869,
        "name": "Aspen Lodge",
        "cmt": "28-DEC-09 9:17:04",
        "description": "28-DEC-09 9:17:04",
        "ele": "522.358032",
        "source": "GPS",
        "sym": "Lodging",
        "tourism": "motel"
      }
    },
    {
      "type": "Feature",
      "geometry": {
        "type": "Point",
        "coordinates": [
          71.4440656,
          30.185284000000003
        ]
      },
      "properties": {
        "id": 1241014683,
        "name": "Asana",
        "cmt": "19-DEC-09 17:38:31",
        "description": "19-DEC-09 17:38:31",
        "ele": "119.088135",
        "source": "GPS",
        "sym": "Lodging",
        "tourism": "motel"
      }
    },
    {
      "type": "Feature",
      "geometry": {
        "type": "Point",
        "coordinates": [
          74.35666330000001,
          31.4739223
        ]
      },
      "properties": {
        "id": 1305478201,
        "name": "Marvel Hotel",
        "addr:city": "Lahore",
        "addr:street": "Khayaban e Iqbal",
        "tourism": "hotel"
      }
    },
    {
      "type": "Feature",
      "geometry": {
        "type": "Point",
        "coordinates": [
          73.0698615,
          33.654436200000006
        ]
      },
      "properties": {
        "id": 1793997465,
        "name": "twin city hotel",
        "tourism": "hotel"
      }
    },
    {
      "type": "Feature",
      "geometry": {
        "type": "Point",
        "coordinates": [
          66.94522090000001,
          24.875225500000003
        ]
      },
      "properties": {
        "id": 1894620908,
        "name": "Block 9",
        "tourism": "hotel"
      }
    },
    {
      "type": "Feature",
      "geometry": {
        "type": "Point",
        "coordinates": [
          71.4398211,
          30.203833500000002
        ]
      },
      "properties": {
        "id": 1921952402,
        "name": "Abida Hall",
        "addr:city": "ملتان",
        "tourism": "hotel"
      }
    },
    {
      "type": "Feature",
      "geometry": {
        "type": "Point",
        "coordinates": [
          71.482909,
          30.223131000000002
        ]
      },
      "properties": {
        "id": 1921952418,
        "name": "Alberoni Hostel",
        "addr:city": "ملتان",
        "tourism": "hotel"
      }
    },
    {
      "type": "Feature",
      "geometry": {
        "type": "Point",
        "coordinates": [
          71.4407968,
          30.1831071
        ]
      },
      "properties": {
        "id": 1921952450,
        "name": "Aziz Hotel",
        "addr:city": "ملتان",
        "tourism": "hotel"
      }
    },
    {
      "type": "Feature",
      "geometry": {
        "type": "Point",
        "coordinates": [
          71.44583,
          30.2053
        ]
      },
      "properties": {
        "id": 1921952504,
        "name": "Bhutta Hall",
        "addr:city": "ملتان",
        "tourism": "hotel"
      }
    },
    {
      "type": "Feature",
      "geometry": {
        "type": "Point",
        "coordinates": [
          71.450636,
          30.193219000000003
        ]
      },
      "properties": {
        "id": 1921952845,
        "name": "Doctors Hostel",
        "addr:city": "ملتان",
        "addr:street": "Abdali Rd",
        "tourism": "hotel"
      }
    },
    {
      "type": "Feature",
      "geometry": {
        "type": "Point",
        "coordinates": [
          71.444457,
          30.197403
        ]
      },
      "properties": {
        "id": 1921952855,
        "name": "Executive Guest House",
        "addr:city": "ملتان",
        "addr:street": "Old BWP Rd",
        "tourism": "hotel"
      }
    },
    {
      "type": "Feature",
      "geometry": {
        "type": "Point",
        "coordinates": [
          71.477416,
          30.223217
        ]
      },
      "properties": {
        "id": 1921952878,
        "name": "Farid Hall",
        "addr:city": "ملتان",
        "addr:street": "Bosan Rd",
        "tourism": "hotel"
      }
    },
    {
      "type": "Feature",
      "geometry": {
        "type": "Point",
        "coordinates": [
          71.442783,
          30.205235000000002
        ]
      },
      "properties": {
        "id": 1921953535,
        "name": "Hostel Nishter",
        "addr:city": "ملتان",
        "tourism": "hotel"
      }
    },
    {
      "type": "Feature",
      "geometry": {
        "type": "Point",
        "coordinates": [
          71.47666500000001,
          30.219998000000004
        ]
      },
      "properties": {
        "id": 1921953540,
        "name": "Hostels Govt. College Bosan Road",
        "addr:city": "ملتان",
        "addr:street": "Bosan Rd",
        "tourism": "hotel"
      }
    },
    {
      "type": "Feature",
      "geometry": {
        "type": "Point",
        "coordinates": [
          71.441882,
          30.194485000000004
        ]
      },
      "properties": {
        "id": 1921953545,
        "name": "Hotel Emrald",
        "addr:city": "ملتان",
        "tourism": "hotel"
      }
    },
    {
      "type": "Feature",
      "geometry": {
        "type": "Point",
        "coordinates": [
          71.44233200000001,
          30.182512000000003
        ]
      },
      "properties": {
        "id": 1921953549,
        "name": "Hotel Silver Sand",
        "addr:city": "ملتان",
        "tourism": "hotel"
      }
    },
    {
      "type": "Feature",
      "geometry": {
        "type": "Point",
        "coordinates": [
          71.445186,
          30.205450000000003
        ]
      },
      "properties": {
        "id": 1921953584,
        "name": "ابن سینا",
        "addr:city": "ملتان",
        "name:ar": "ابن سينا",
        "name:az-Arab": "ابن سینا",
        "name:azb": "ابن سینا",
        "name:de": "Avicenna",
        "name:en": "Ibn Sina",
        "name:es": "Avicena",
        "name:ug": "ﺋﯩﺒﯩﻦ ﺳﯩﻨﺎ",
        "name:ur": "ابن سینا",
        "tourism": "hotel"
      }
    },
    {
      "type": "Feature",
      "geometry": {
        "type": "Point",
        "coordinates": [
          71.44439200000001,
          30.205729
        ]
      },
      "properties": {
        "id": 1921953610,
        "name": "Iqbal Hall",
        "addr:city": "ملتان",
        "tourism": "hotel"
      }
    },
    {
      "type": "Feature",
      "geometry": {
        "type": "Point",
        "coordinates": [
          71.483531,
          30.216308
        ]
      },
      "properties": {
        "id": 1921953780,
        "name": "Executive Lodges",
        "addr:city": "ملتان",
        "tourism": "hotel"
      }
    },
    {
      "type": "Feature",
      "geometry": {
        "type": "Point",
        "coordinates": [
          71.44557200000001,
          30.186181
        ]
      },
      "properties": {
        "id": 1921954000,
        "name": "Mid City Hotel",
        "addr:city": "ملتان",
        "addr:street": "Shershah Rd",
        "tourism": "hotel"
      }
    },
    {
      "type": "Feature",
      "geometry": {
        "type": "Point",
        "coordinates": [
          71.443748,
          30.200644000000004
        ]
      },
      "properties": {
        "id": 1921954066,
        "name": "Nursing Hostel",
        "addr:city": "ملتان",
        "tourism": "hotel"
      }
    },
    {
      "type": "Feature",
      "geometry": {
        "type": "Point",
        "coordinates": [
          71.45321100000001,
          30.193799000000002
        ]
      },
      "properties": {
        "id": 1921954153,
        "name": "Ramada Hotel",
        "addr:city": "ملتان",
        "addr:street": "Abdali Rd",
        "brand": "Ramada",
        "brand:wikidata": "Q1502859",
        "official_name": "Ramada by Wyndham",
        "tourism": "hotel"
      }
    },
    {
      "type": "Feature",
      "geometry": {
        "type": "Point",
        "coordinates": [
          71.44349100000001,
          30.206008000000004
        ]
      },
      "properties": {
        "id": 1921954161,
        "name": "Razi Hall",
        "addr:city": "ملتان",
        "tourism": "hotel"
      }
    },
    {
      "type": "Feature",
      "geometry": {
        "type": "Point",
        "coordinates": [
          71.45894100000001,
          30.204313000000003
        ]
      },
      "properties": {
        "id": 1921954297,
        "name": "Shezan Hotel",
        "addr:city": "ملتان",
        "addr:street": "Kacheri Rd",
        "tourism": "hotel"
      }
    },
    {
      "type": "Feature",
      "geometry": {
        "type": "Point",
        "coordinates": [
          71.45269880000001,
          30.201133900000002
        ]
      },
      "properties": {
        "id": 1921954314,
        "name": "سندباد",
        "addr:city": "ملتان",
        "name:ar": "سندباد",
        "name:de": "Sindbad",
        "name:en": "Sindbad",
        "name:es": "Simbad",
        "name:ur": "سندباد",
        "tourism": "hotel"
      }
    },
    {
      "type": "Feature",
      "geometry": {
        "type": "Point",
        "coordinates": [
          71.44568000000001,
          30.204892
        ]
      },
      "properties": {
        "id": 1921954351,
        "name": "Tariq Hall",
        "addr:city": "ملتان",
        "tourism": "hotel"
      }
    },
    {
      "type": "Feature",
      "geometry": {
        "type": "Point",
        "coordinates": [
          71.676822,
          29.384823
        ]
      },
      "properties": {
        "id": 1925507769,
        "name": "Ateeq Hall",
        "addr:city": "BAHAWALPUR",
        "addr:country": "PK",
        "addr:district": "BAHAWALPUR",
        "addr:region": "PUNJAB",
        "tourism": "hotel"
      }
    },
    {
      "type": "Feature",
      "geometry": {
        "type": "Point",
        "coordinates": [
          71.67677900000001,
          29.385338
        ]
      },
      "properties": {
        "id": 1925507866,
        "name": "Faisal Hall",
        "addr:city": "BAHAWALPUR",
        "addr:country": "PK",
        "addr:district": "BAHAWALPUR",
        "addr:region": "PUNJAB",
        "tourism": "hotel"
      }
    },
    {
      "type": "Feature",
      "geometry": {
        "type": "Point",
        "coordinates": [
          71.67828100000001,
          29.386840000000003
        ]
      },
      "properties": {
        "id": 1925507902,
        "name": "Fatima Jinnah Hall",
        "addr:city": "BAHAWALPUR",
        "addr:country": "PK",
        "addr:district": "BAHAWALPUR",
        "addr:region": "PUNJAB",
        "tourism": "hotel"
      }
    },
    {
      "type": "Feature",
      "geometry": {
        "type": "Point",
        "coordinates": [
          71.676822,
          29.383621
        ]
      },
      "properties": {
        "id": 1925507929,
        "name": "Ghazal Hall",
        "addr:city": "BAHAWALPUR",
        "addr:country": "PK",
        "addr:district": "BAHAWALPUR",
        "addr:region": "PUNJAB",
        "tourism": "hotel"
      }
    },
    {
      "type": "Feature",
      "geometry": {
        "type": "Point",
        "coordinates": [
          71.67695,
          29.386497000000002
        ]
      },
      "properties": {
        "id": 1925508004,
        "name": "Iqbal Hall",
        "addr:city": "BAHAWALPUR",
        "addr:country": "PK",
        "addr:district": "BAHAWALPUR",
        "addr:region": "PUNJAB",
        "tourism": "hotel"
      }
    },
    {
      "type": "Feature",
      "geometry": {
        "type": "Point",
        "coordinates": [
          71.67665000000001,
          29.384437000000002
        ]
      },
      "properties": {
        "id": 1925508025,
        "name": "Johar Hall",
        "addr:city": "BAHAWALPUR",
        "addr:country": "PK",
        "addr:district": "BAHAWALPUR",
        "addr:region": "PUNJAB",
        "tourism": "hotel"
      }
    },
    {
      "type": "Feature",
      "geometry": {
        "type": "Point",
        "coordinates": [
          71.5819412,
          34.0155327
        ]
      },
      "properties": {
        "id": 2077574702,
        "name": "Amin Hotel Peshawar",
        "source": "by Car",
        "tourism": "hotel"
      }
    },
    {
      "type": "Feature",
      "geometry": {
        "type": "Point",
        "coordinates": [
          73.06827100000001,
          33.728561000000006
        ]
      },
      "properties": {
        "id": 2142192669,
        "name": "Fortalice Koshar",
        "addr:city": "اسلام آباد",
        "addr:city:ar": "إسلام آباد",
        "addr:city:en": "Islamabad",
        "addr:city:ks": "اِسلام آبادٖ",
        "addr:city:pnb": "اسلام آباد",
        "addr:city:ps": "اسلام آباد",
        "addr:city:sd": "اسلام آباد",
        "addr:city:ur": "اسلام آباد",
        "addr:housenumber": "18",
        "addr:street": "26, F-6/2",
        "internet_access": "wlan",
        "internet_access:fee": "yes",
        "note": "kohsar@fortalice.com.pk",
        "phone": "+92 51 2820304",
        "smoking": "separated",
        "tourism": "hotel",
        "website": "www.fortalice.com.pk",
        "wheelchair": "limited"
      }
    },
    {
      "type": "Feature",
      "geometry": {
        "type": "Point",
        "coordinates": [
          73.0520807,
          33.7195965
        ]
      },
      "properties": {
        "id": 2169733225,
        "name": "Comfort Residency",
        "addr:city": "اسلام آباد",
        "addr:city:ar": "إسلام آباد",
        "addr:city:en": "Islamabad",
        "addr:city:ks": "اِسلام آبادٖ",
        "addr:city:pnb": "اسلام آباد",
        "addr:city:ps": "اسلام آباد",
        "addr:city:sd": "اسلام آباد",
        "addr:city:ur": "اسلام آباد",
        "addr:housenumber": "47",
        "addr:province": "Punjab",
        "addr:street": "College Road, Street 16, F-7/2",
        "internet_access": "wlan",
        "internet_access:fee": "no",
        "note": "Very good accomondation in Islamabad close the shops and restaurants.",
        "phone": "+92 51 2609301",
        "smoking": "separated",
        "source": "local_knowledge",
        "tourism": "hotel",
        "website": "www.comfortresidencyisb.com",
        "wheelchair": "limited"
      }
    },
    {
      "type": "Feature",
      "geometry": {
        "type": "Point",
        "coordinates": [
          74.2078632,
          32.130053000000004
        ]
      },
      "properties": {
        "id": 2192574284,
        "name": "Unnamed",
        "amenity": "restaurant",
        "tourism": "hotel"
      }
    },
    {
      "type": "Feature",
      "geometry": {
        "type": "Point",
        "coordinates": [
          73.02037560000001,
          33.722599300000006
        ]
      },
      "properties": {
        "id": 2201944551,
        "name": "NDU Guest House",
        "tourism": "guest_house"
      }
    },
    {
      "type": "Feature",
      "geometry": {
        "type": "Point",
        "coordinates": [
          73.752385,
          33.1445889
        ]
      },
      "properties": {
        "id": 2242344713,
        "name": "Al-Janat Hotel",
        "tourism": "hotel"
      }
    },
    {
      "type": "Feature",
      "geometry": {
        "type": "Point",
        "coordinates": [
          73.74452620000001,
          33.1533797
        ]
      },
      "properties": {
        "id": 2242413767,
        "name": "Jalal dins",
        "tourism": "hotel"
      }
    },
    {
      "type": "Feature",
      "geometry": {
        "type": "Point",
        "coordinates": [
          73.0705087,
          33.5809237
        ]
      },
      "properties": {
        "id": 2242716068,
        "name": "Gatmel Motel",
        "addr:city": "راولپنڈی",
        "addr:city:en": "Rawalpindi",
        "addr:city:fr": "Rawalpindi",
        "addr:city:pa": "ਰਾਵਲਪਿੰਡੀ",
        "addr:city:pnb": "راولپنڈی",
        "addr:city:ur": "راولپنڈی",
        "addr:street": "National Park Road",
        "tourism": "hotel"
      }
    },
    {
      "type": "Feature",
      "geometry": {
        "type": "Point",
        "coordinates": [
          73.05382540000001,
          33.591999400000006
        ]
      },
      "properties": {
        "id": 2247086882,
        "name": "فلیش مینز ہوٹل",
        "addr:city": "راولپنڈی",
        "name:en": "Flashmans Hotel",
        "name:ur": "فلیش مینز ہوٹل",
        "tourism": "hotel"
      }
    },
    {
      "type": "Feature",
      "geometry": {
        "type": "Point",
        "coordinates": [
          73.0514536,
          33.709732900000006
        ]
      },
      "properties": {
        "id": 2247141805,
        "name": "Continental House",
        "tourism": "guest_house"
      }
    },
    {
      "type": "Feature",
      "geometry": {
        "type": "Point",
        "coordinates": [
          73.0596301,
          33.7107225
        ]
      },
      "properties": {
        "id": 2247154027,
        "name": "ایلچی کانٹی نینٹل ہوٹل",
        "addr:city": "اسلام آباد",
        "addr:city:ar": "إسلام آباد",
        "addr:city:ks": "اِسلام آبادٖ",
        "addr:city:pnb": "اسلام آباد",
        "addr:city:ps": "اسلام آباد",
        "addr:city:sd": "اسلام آباد",
        "addr:city:ur": "اسلام آباد",
        "name:en": "Envoy Continental Hotel",
        "name:ur": "ایلچی کانٹی نینٹل ہوٹل",
        "tourism": "hotel",
        "wikidata": "Q112002432"
      }
    },
    {
      "type": "Feature",
      "geometry": {
        "type": "Point",
        "coordinates": [
          73.07965100000001,
          33.7318914
        ]
      },
      "properties": {
        "id": 2344493399,
        "name": "Serai Guest House",
        "addr:city": "اسلام آباد",
        "addr:city:ar": "إسلام آباد",
        "addr:city:en": "Islamabad",
        "addr:city:ks": "اِسلام آبادٖ",
        "addr:city:pnb": "اسلام آباد",
        "addr:city:ps": "اسلام آباد",
        "addr:city:sd": "اسلام آباد",
        "addr:city:ur": "اسلام آباد",
        "addr:housename": "Serai",
        "addr:housenumber": "2-A",
        "addr:postcode": "44000",
        "addr:street": "Street 16",
        "email": "info@serai.com.pk",
        "note": "2-A, Street 16, F-6/3, Islamabad, Pakistan",
        "phone": "+92512277117",
        "tourism": "guest_house",
        "wheelchair": "yes"
      }
    },
    {
      "type": "Feature",
      "geometry": {
        "type": "Point",
        "coordinates": [
          71.5580231,
          34.025034000000005
        ]
      },
      "properties": {
        "id": 2345410961,
        "name": "Wapda Guest House",
        "tourism": "guest_house"
      }
    },
    {
      "type": "Feature",
      "geometry": {
        "type": "Point",
        "coordinates": [
          74.86630530000001,
          36.390705800000006
        ]
      },
      "properties": {
        "id": 2350913780,
        "name": "Gulmit Continental Hotel",
        "tourism": "hotel"
      }
    },
    {
      "type": "Feature",
      "geometry": {
        "type": "Point",
        "coordinates": [
          72.69924590000001,
          32.769757600000005
        ]
      },
      "properties": {
        "id": 2409753956,
        "name": "PTDC Motel",
        "tourism": "hotel"
      }
    },
    {
      "type": "Feature",
      "geometry": {
        "type": "Point",
        "coordinates": [
          72.9135906,
          31.756921800000004
        ]
      },
      "properties": {
        "id": 2420702123,
        "name": "Unnamed",
        "addr:city": "چناب نگر",
        "tourism": "guest_house"
      }
    },
    {
      "type": "Feature",
      "geometry": {
        "type": "Point",
        "coordinates": [
          72.64599360000001,
          34.068612800000004
        ]
      },
      "properties": {
        "id": 2432509992,
        "name": "GIKI Guest House",
        "tourism": "guest_house"
      }
    },
    {
      "type": "Feature",
      "geometry": {
        "type": "Point",
        "coordinates": [
          73.400824,
          34.027754
        ]
      },
      "properties": {
        "id": 2468677382,
        "name": "PTDC Motel",
        "addr:city": "Ayubia",
        "tourism": "motel"
      }
    },
    {
      "type": "Feature",
      "geometry": {
        "type": "Point",
        "coordinates": [
          74.2720407,
          31.706356100000004
        ]
      },
      "properties": {
        "id": 2514969000,
        "name": "Ravi Truck Hotel",
        "addr:city": "Kala Shah Kaku",
        "addr:street": "Grand Trunk Road",
        "building": "yes",
        "tourism": "hotel"
      }
    },
    {
      "type": "Feature",
      "geometry": {
        "type": "Point",
        "coordinates": [
          73.00179030000001,
          34.6295013
        ]
      },
      "properties": {
        "id": 2642668595,
        "name": "Rest house Kuza Banda",
        "source": "Wikimapia",
        "tourism": "guest_house"
      }
    },
    {
      "type": "Feature",
      "geometry": {
        "type": "Point",
        "coordinates": [
          73.13025970000001,
          33.5961579
        ]
      },
      "properties": {
        "id": 2668920465,
        "name": "Comforts Inn",
        "tourism": "hotel"
      }
    },
    {
      "type": "Feature",
      "geometry": {
        "type": "Point",
        "coordinates": [
          73.95781430000001,
          33.9163045
        ]
      },
      "properties": {
        "id": 2674658003,
        "name": "Las Danna Rest House",
        "tourism": "guest_house"
      }
    },
    {
      "type": "Feature",
      "geometry": {
        "type": "Point",
        "coordinates": [
          73.7412752,
          32.941316300000004
        ]
      },
      "properties": {
        "id": 2776925873,
        "name": "Toor House",
        "tourism": "guest_house"
      }
    },
    {
      "type": "Feature",
      "geometry": {
        "type": "Point",
        "coordinates": [
          73.73961270000001,
          32.9400643
        ]
      },
      "properties": {
        "id": 2776927984,
        "name": "Unnamed",
        "tourism": "guest_house"
      }
    },
    {
      "type": "Feature",
      "geometry": {
        "type": "Point",
        "coordinates": [
          73.73980590000001,
          32.9403074
        ]
      },
      "properties": {
        "id": 2776928415,
        "name": "Unnamed",
        "tourism": "guest_house"
      }
    },
    {
      "type": "Feature",
      "geometry": {
        "type": "Point",
        "coordinates": [
          73.7403525,
          32.941127200000004
        ]
      },
      "properties": {
        "id": 2776929226,
        "name": "Unnamed",
        "tourism": "guest_house"
      }
    },
    {
      "type": "Feature",
      "geometry": {
        "type": "Point",
        "coordinates": [
          73.7394405,
          32.9389933
        ]
      },
      "properties": {
        "id": 2776945408,
        "name": "Gujaar House",
        "tourism": "guest_house"
      }
    },
    {
      "type": "Feature",
      "geometry": {
        "type": "Point",
        "coordinates": [
          73.09839570000001,
          31.408144200000002
        ]
      },
      "properties": {
        "id": 2912532985,
        "name": "Rex Hotel",
        "addr:city": "فیصل آباد",
        "addr:city:en": "Faisalabad",
        "addr:city:fr": "Faisalabad",
        "addr:city:pa": "ਫ਼ੈਸਲਾਬਾਦ",
        "addr:city:pnb": "فیصل آباد",
        "addr:city:ur": "فیصل آباد",
        "addr:street": "Satiana road",
        "tourism": "hotel"
      }
    },
    {
      "type": "Feature",
      "geometry": {
        "type": "Point",
        "coordinates": [
          73.6516897,
          34.9109707
        ]
      },
      "properties": {
        "id": 2926803968,
        "name": "PTDC Motel",
        "addr:city": "Naran",
        "addr:street": "Mansehra-Naran-Chillas Highway",
        "email": "motels.reservation@gmail.com",
        "internet_access": "wlan",
        "name:en": "Pakistan Tourism Development Cooperation Naran",
        "opening_hours": "24/7",
        "operator": "PTDC",
        "phone": "+92997430111",
        "tourism": "motel",
        "website": "http://www.tourism.gov.pk"
      }
    },
    {
      "type": "Feature",
      "geometry": {
        "type": "Point",
        "coordinates": [
          76.8286874,
          34.8445533
        ]
      },
      "properties": {
        "id": 2973877744,
        "name": "Maha guest house",
        "check_date": "2025-07-04",
        "tourism": "guest_house"
      }
    },
    {
      "type": "Feature",
      "geometry": {
        "type": "Point",
        "coordinates": [
          76.82950100000001,
          34.844345000000004
        ]
      },
      "properties": {
        "id": 2973877845,
        "name": "Unnamed",
        "tourism": "guest_house"
      }
    },
    {
      "type": "Feature",
      "geometry": {
        "type": "Point",
        "coordinates": [
          76.82829430000001,
          34.8451736
        ]
      },
      "properties": {
        "id": 2973877866,
        "name": "Unnamed",
        "tourism": "guest_house"
      }
    },
    {
      "type": "Feature",
      "geometry": {
        "type": "Point",
        "coordinates": [
          73.8055255,
          34.5616515
        ]
      },
      "properties": {
        "id": 3037257574,
        "name": "Kutton Resort",
        "tourism": "hotel",
        "tourism_1": "resort"
      }
    },
    {
      "type": "Feature",
      "geometry": {
        "type": "Point",
        "coordinates": [
          73.2323264,
          34.1860244
        ]
      },
      "properties": {
        "id": 3093921147,
        "name": "Travel Lodge",
        "tourism": "guest_house"
      }
    },
    {
      "type": "Feature",
      "geometry": {
        "type": "Point",
        "coordinates": [
          73.22370880000001,
          34.1709504
        ]
      },
      "properties": {
        "id": 3094657575,
        "name": "Gilani's Regency Hotel",
        "addr:city": "Abbottabad",
        "addr:neighbourhood": "Sikandarabad",
        "addr:street": "Capt Amir Shaheed Road",
        "addr:suburb": "Jhangi",
        "tourism": "hotel"
      }
    },
    {
      "type": "Feature",
      "geometry": {
        "type": "Point",
        "coordinates": [
          73.232691,
          34.1868574
        ]
      },
      "properties": {
        "id": 3095475416,
        "name": "Abbott Gardens",
        "tourism": "hotel"
      }
    },
    {
      "type": "Feature",
      "geometry": {
        "type": "Point",
        "coordinates": [
          73.21301820000001,
          34.141517300000004
        ]
      },
      "properties": {
        "id": 3105253739,
        "name": "Hamala Inn",
        "addr:city": "Abbottabad",
        "addr:street": "Shuhada-e-Hazara Chowk",
        "stars": "1",
        "tourism": "hotel"
      }
    },
    {
      "type": "Feature",
      "geometry": {
        "type": "Point",
        "coordinates": [
          73.2131695,
          34.1413062
        ]
      },
      "properties": {
        "id": 3105253742,
        "name": "Ramlina Hotel",
        "addr:city": "Abbottabad",
        "addr:street": "Shuhada-e-Hazara Chowk",
        "stars": "1",
        "tourism": "hotel"
      }
    },
    {
      "type": "Feature",
      "geometry": {
        "type": "Point",
        "coordinates": [
          73.2289408,
          34.1745821
        ]
      },
      "properties": {
        "id": 3128326913,
        "name": "Hills City Guest House",
        "addr:city": "Abbottabad",
        "addr:city_block": "Lalazar Colony",
        "addr:neighbourhood": "Sikandarabad",
        "addr:street": "Lalarukh Colony Road",
        "addr:suburb": "Jhangi",
        "tourism": "guest_house"
      }
    },
    {
      "type": "Feature",
      "geometry": {
        "type": "Point",
        "coordinates": [
          74.34899940000001,
          31.514295100000002
        ]
      },
      "properties": {
        "id": 3272961299,
        "name": "رویاٹ لگژری ہوٹل",
        "addr:city": "لاہور",
        "addr:housenumber": "43-1",
        "addr:postcode": "54000",
        "name:en": "Royaute Luxury Hotel",
        "name:fr": "Hôtel de luxe Royaute",
        "name:pa": "ਰੋਯਾਟ ਲਗਜ਼ਰੀ ਹੋਟਲ",
        "name:ur": "رویاٹ لگژری ہوٹل",
        "phone": "+92-42-35786001, +92-42-35786002",
        "tourism": "hotel",
        "website": "https://royauteluxury.com/"
      }
    },
    {
      "type": "Feature",
      "geometry": {
        "type": "Point",
        "coordinates": [
          74.10071970000001,
          35.431874400000005
        ]
      },
      "properties": {
        "id": 3340717884,
        "name": "Shangrila Indus View",
        "phone": "+92 (0)58120 235",
        "stars": "2",
        "tourism": "hotel"
      }
    },
    {
      "type": "Feature",
      "geometry": {
        "type": "Point",
        "coordinates": [
          67.32312180000001,
          29.864040100000004
        ]
      },
      "properties": {
        "id": 3406660840,
        "name": "Rest House",
        "tourism": "motel"
      }
    },
    {
      "type": "Feature",
      "geometry": {
        "type": "Point",
        "coordinates": [
          67.02595690000001,
          24.8476272
        ]
      },
      "properties": {
        "id": 3467541313,
        "name": "Pearl Continental Hotel",
        "addr:city": "Karachi",
        "addr:street": "Club Road",
        "internet_access:fee": "yes",
        "operator": "Hasho Group",
        "smoking": "isolated",
        "stars": "4",
        "tourism": "hotel"
      }
    },
    {
      "type": "Feature",
      "geometry": {
        "type": "Point",
        "coordinates": [
          73.08616950000001,
          33.732610400000006
        ]
      },
      "properties": {
        "id": 3517205624,
        "name": "Marriott Hotel",
        "addr:city": "اسلام آباد",
        "addr:city:ar": "إسلام آباد",
        "addr:city:en": "Islamabad",
        "addr:city:ks": "اِسلام آبادٖ",
        "addr:city:pnb": "اسلام آباد",
        "addr:city:ps": "اسلام آباد",
        "addr:city:sd": "اسلام آباد",
        "addr:city:ur": "اسلام آباد",
        "addr:street": "Service Road West G5;Service Road West F5",
        "tourism": "hotel"
      }
    },
    {
      "type": "Feature",
      "geometry": {
        "type": "Point",
        "coordinates": [
          75.64755960000001,
          35.2958094
        ]
      },
      "properties": {
        "id": 3522641399,
        "name": "PTDC Motel",
        "addr:city": "Skardu",
        "addr:street": "Hameed Garh Road",
        "email": "ptdck2motelskardu@gmail.com",
        "internet_access": "wlan",
        "name:en": "PTDC Motel Skardu",
        "name:nl": "PTDC Hotel Skardu",
        "opening_hours": "24/7",
        "operator": "Pakistan Tourism Development Corporation",
        "phone": "+925815450291",
        "tourism": "hotel",
        "website": "http://www.tourism.gov.pk"
      }
    },
    {
      "type": "Feature",
      "geometry": {
        "type": "Point",
        "coordinates": [
          73.35019030000001,
          34.5477562
        ]
      },
      "properties": {
        "id": 3522665220,
        "name": "PTDC Motel",
        "addr:city": "Balakot",
        "tourism": "hotel"
      }
    },
    {
      "type": "Feature",
      "geometry": {
        "type": "Point",
        "coordinates": [
          71.6903595,
          35.6992136
        ]
      },
      "properties": {
        "id": 3522698254,
        "name": "PTDC Motel",
        "addr:city": "Bamburait",
        "tourism": "hotel"
      }
    },
    {
      "type": "Feature",
      "geometry": {
        "type": "Point",
        "coordinates": [
          71.6905505,
          29.391151000000004
        ]
      },
      "properties": {
        "id": 3522702944,
        "name": "PTDC Motel",
        "tourism": "hotel"
      }
    },
    {
      "type": "Feature",
      "geometry": {
        "type": "Point",
        "coordinates": [
          74.3239355,
          35.922349700000005
        ]
      },
      "properties": {
        "id": 3522708225,
        "name": "PTDC Motel",
        "addr:city": "Gilgit",
        "internet_access": "wlan",
        "opening_hours": "24/7",
        "tourism": "hotel"
      }
    },
    {
      "type": "Feature",
      "geometry": {
        "type": "Point",
        "coordinates": [
          74.6520988,
          36.316728100000006
        ]
      },
      "properties": {
        "id": 3522720017,
        "name": "PTDC Motel",
        "addr:city": "Hunza",
        "tourism": "hotel"
      }
    },
    {
      "type": "Feature",
      "geometry": {
        "type": "Point",
        "coordinates": [
          74.65299320000001,
          36.315667600000005
        ]
      },
      "properties": {
        "id": 3522720018,
        "name": "Unnamed",
        "tourism": "hotel"
      }
    },
    {
      "type": "Feature",
      "geometry": {
        "type": "Point",
        "coordinates": [
          72.58651440000001,
          35.480265300000006
        ]
      },
      "properties": {
        "id": 3522723306,
        "name": "PTDC Motel",
        "addr:city": "Kalam",
        "tourism": "hotel"
      }
    },
    {
      "type": "Feature",
      "geometry": {
        "type": "Point",
        "coordinates": [
          72.5867075,
          35.481278800000005
        ]
      },
      "properties": {
        "id": 3522723307,
        "name": "Falaksir",
        "tourism": "hotel"
      }
    },
    {
      "type": "Feature",
      "geometry": {
        "type": "Point",
        "coordinates": [
          72.58500160000001,
          35.478788800000004
        ]
      },
      "properties": {
        "id": 3522723308,
        "name": "Hotel Heaven Breeze",
        "tourism": "hotel"
      }
    },
    {
      "type": "Feature",
      "geometry": {
        "type": "Point",
        "coordinates": [
          72.5882859,
          35.477884200000005
        ]
      },
      "properties": {
        "id": 3522723309,
        "name": "Unnamed",
        "tourism": "hotel"
      }
    },
    {
      "type": "Feature",
      "geometry": {
        "type": "Point",
        "coordinates": [
          72.52691100000001,
          36.284524100000006
        ]
      },
      "properties": {
        "id": 3522737198,
        "name": "PTDC Motel",
        "addr:city": "Mastuj",
        "smoking": "outside",
        "tourism": "hotel"
      }
    },
    {
      "type": "Feature",
      "geometry": {
        "type": "Point",
        "coordinates": [
          72.56084080000001,
          35.052652900000005
        ]
      },
      "properties": {
        "id": 3522740505,
        "name": "PTDC Motel",
        "addr:city": "Miandam",
        "tourism": "hotel"
      }
    },
    {
      "type": "Feature",
      "geometry": {
        "type": "Point",
        "coordinates": [
          72.5626247,
          35.0539986
        ]
      },
      "properties": {
        "id": 3522740506,
        "name": "Evergreen",
        "tourism": "hotel"
      }
    },
    {
      "type": "Feature",
      "geometry": {
        "type": "Point",
        "coordinates": [
          71.8743257,
          35.198228500000006
        ]
      },
      "properties": {
        "id": 3522747464,
        "name": "PTDC Motel",
        "addr:city": "Panakot",
        "tourism": "hotel"
      }
    },
    {
      "type": "Feature",
      "geometry": {
        "type": "Point",
        "coordinates": [
          74.3066924,
          35.9195871
        ]
      },
      "properties": {
        "id": 3522756509,
        "name": "PTDC Motel",
        "addr:city": "Ramalake",
        "tourism": "hotel"
      }
    },
    {
      "type": "Feature",
      "geometry": {
        "type": "Point",
        "coordinates": [
          74.82075750000001,
          36.6885343
        ]
      },
      "properties": {
        "id": 3522763109,
        "name": "Riveria Hotel",
        "tourism": "hotel"
      }
    },
    {
      "type": "Feature",
      "geometry": {
        "type": "Point",
        "coordinates": [
          72.8181062,
          33.7461702
        ]
      },
      "properties": {
        "id": 3522763734,
        "name": "PTDC Motel",
        "addr:city": "Taxila",
        "tourism": "hotel"
      }
    },
    {
      "type": "Feature",
      "geometry": {
        "type": "Point",
        "coordinates": [
          71.1044399,
          34.1185824
        ]
      },
      "properties": {
        "id": 3522764898,
        "name": "پی ٹی ڈی سی موٹل",
        "addr:city": "تورخم",
        "name:en": "PTDC Motel",
        "name:es": "Motel PTDC",
        "name:ur": "پی ٹی ڈی سی موٹل",
        "tourism": "hotel"
      }
    },
    {
      "type": "Feature",
      "geometry": {
        "type": "Point",
        "coordinates": [
          74.80677100000001,
          35.354992100000004
        ]
      },
      "properties": {
        "id": 3531036979,
        "name": "PTDC Motel",
        "addr:city": "Rama",
        "phone": "+92 58174 80386",
        "tourism": "hotel"
      }
    },
    {
      "type": "Feature",
      "geometry": {
        "type": "Point",
        "coordinates": [
          74.8092441,
          35.358473100000005
        ]
      },
      "properties": {
        "id": 3531039698,
        "name": "Forest Rest House",
        "tourism": "hotel"
      }
    },
    {
      "type": "Feature",
      "geometry": {
        "type": "Point",
        "coordinates": [
          74.6898123,
          36.325099800000004
        ]
      },
      "properties": {
        "id": 3531949674,
        "name": "Eagle’s Nest Hotel",
        "tourism": "hotel",
        "website": "https://hunzaeaglesnest.com.pk"
      }
    },
    {
      "type": "Feature",
      "geometry": {
        "type": "Point",
        "coordinates": [
          74.34876550000001,
          34.8211923
        ]
      },
      "properties": {
        "id": 3562436541,
        "name": "Rest House",
        "tourism": "hotel"
      }
    },
    {
      "type": "Feature",
      "geometry": {
        "type": "Point",
        "coordinates": [
          67.3307824,
          24.865648000000004
        ]
      },
      "properties": {
        "id": 3659274026,
        "name": "Pakistan Steel Guest House",
        "tourism": "hotel"
      }
    },
    {
      "type": "Feature",
      "geometry": {
        "type": "Point",
        "coordinates": [
          68.0029009,
          27.590594400000004
        ]
      },
      "properties": {
        "id": 3682534805,
        "name": "Hotel Chacha",
        "addr:city": "QAMBAR",
        "tourism": "hotel"
      }
    },
    {
      "type": "Feature",
      "geometry": {
        "type": "Point",
        "coordinates": [
          66.59862530000001,
          27.8146437
        ]
      },
      "properties": {
        "id": 3686725659,
        "name": "Chamrock Hotel and Restaurant Khuzdar",
        "addr:city": "Khuzdar",
        "tourism": "hotel"
      }
    },
    {
      "type": "Feature",
      "geometry": {
        "type": "Point",
        "coordinates": [
          66.61224840000001,
          27.8054449
        ]
      },
      "properties": {
        "id": 3686791865,
        "name": "Al-Mustafa hotel",
        "addr:city": "Khuzdar",
        "tourism": "hotel"
      }
    },
    {
      "type": "Feature",
      "geometry": {
        "type": "Point",
        "coordinates": [
          73.0010898,
          33.689973
        ]
      },
      "properties": {
        "id": 3761402208,
        "name": "Harvey's Guest House",
        "addr:city": "اسلام آباد",
        "addr:city:ar": "إسلام آباد",
        "addr:city:en": "Islamabad",
        "addr:city:ks": "اِسلام آبادٖ",
        "addr:city:pnb": "اسلام آباد",
        "addr:city:ps": "اسلام آباد",
        "addr:city:sd": "اسلام آباد",
        "addr:city:ur": "اسلام آباد",
        "addr:street": "Street 22",
        "tourism": "guest_house"
      }
    },
    {
      "type": "Feature",
      "geometry": {
        "type": "Point",
        "coordinates": [
          73.66066710000001,
          34.9095931
        ]
      },
      "properties": {
        "id": 3778985552,
        "name": "Unnamed",
        "tourism": "hotel"
      }
    },
    {
      "type": "Feature",
      "geometry": {
        "type": "Point",
        "coordinates": [
          73.662749,
          34.9081052
        ]
      },
      "properties": {
        "id": 3778985553,
        "name": "Faran Hotel",
        "tourism": "hotel"
      }
    },
    {
      "type": "Feature",
      "geometry": {
        "type": "Point",
        "coordinates": [
          73.65045500000001,
          34.9061115
        ]
      },
      "properties": {
        "id": 3778985554,
        "name": "Unnamed",
        "tourism": "hotel"
      }
    },
    {
      "type": "Feature",
      "geometry": {
        "type": "Point",
        "coordinates": [
          68.4384964,
          28.278924900000003
        ]
      },
      "properties": {
        "id": 3784798506,
        "name": "Hotel Al-Harmain",
        "tourism": "hotel"
      }
    },
    {
      "type": "Feature",
      "geometry": {
        "type": "Point",
        "coordinates": [
          68.8476176,
          27.700718100000003
        ]
      },
      "properties": {
        "id": 3784822223,
        "name": "Step Inn Hozel",
        "tourism": "hotel"
      }
    },
    {
      "type": "Feature",
      "geometry": {
        "type": "Point",
        "coordinates": [
          72.99793910000001,
          35.113988000000006
        ]
      },
      "properties": {
        "id": 3810190426,
        "name": "Kohistan Tourist Inn",
        "tourism": "hotel"
      }
    },
    {
      "type": "Feature",
      "geometry": {
        "type": "Point",
        "coordinates": [
          73.06904390000001,
          33.705138700000006
        ]
      },
      "properties": {
        "id": 3810190427,
        "name": "Heaven Heights Hotel",
        "tourism": "hotel"
      }
    },
    {
      "type": "Feature",
      "geometry": {
        "type": "Point",
        "coordinates": [
          73.76805060000001,
          32.8910205
        ]
      },
      "properties": {
        "id": 3820865879,
        "name": "Hajveri Hotel",
        "tourism": "hotel"
      }
    },
    {
      "type": "Feature",
      "geometry": {
        "type": "Point",
        "coordinates": [
          72.3336474,
          32.2939579
        ]
      },
      "properties": {
        "id": 3856198704,
        "name": "Guest House",
        "addr:city": "khushab",
        "tourism": "guest_house"
      }
    },
    {
      "type": "Feature",
      "geometry": {
        "type": "Point",
        "coordinates": [
          74.2587096,
          31.472706300000002
        ]
      },
      "properties": {
        "id": 3870712853,
        "name": "Hotel Royal Lahore",
        "addr:city": "Lahore",
        "addr:street": "Expo Centre Road",
        "tourism": "hotel"
      }
    },
    {
      "type": "Feature",
      "geometry": {
        "type": "Point",
        "coordinates": [
          70.49501350000001,
          29.995248000000004
        ]
      },
      "properties": {
        "id": 3908856089,
        "name": "ہوائی اڈے ہوٹل",
        "addr:city": "ڈیرہ غازی خان",
        "addr:street": "ایئرپورٹ روڈ",
        "name:en": "Airport Hotel",
        "name:ur": "ہوائی اڈے ہوٹل",
        "tourism": "hotel"
      }
    },
    {
      "type": "Feature",
      "geometry": {
        "type": "Point",
        "coordinates": [
          74.45770350000001,
          31.142791100000004
        ]
      },
      "properties": {
        "id": 3922240566,
        "name": "Unnamed",
        "tourism": "hotel"
      }
    },
    {
      "type": "Feature",
      "geometry": {
        "type": "Point",
        "coordinates": [
          73.3715428,
          36.246722600000005
        ]
      },
      "properties": {
        "id": 3995495832,
        "name": "Lake view hotel",
        "tourism": "hotel"
      }
    },
    {
      "type": "Feature",
      "geometry": {
        "type": "Point",
        "coordinates": [
          73.3714147,
          36.246799900000006
        ]
      },
      "properties": {
        "id": 3995495833,
        "name": "Lake view hotel",
        "tourism": "hotel"
      }
    },
    {
      "type": "Feature",
      "geometry": {
        "type": "Point",
        "coordinates": [
          73.3779681,
          36.246513300000004
        ]
      },
      "properties": {
        "id": 3996632866,
        "name": "Unnamed",
        "tourism": "motel"
      }
    },
    {
      "type": "Feature",
      "geometry": {
        "type": "Point",
        "coordinates": [
          73.37765110000001,
          36.2465886
        ]
      },
      "properties": {
        "id": 3996632871,
        "name": "Unnamed",
        "tourism": "motel"
      }
    },
    {
      "type": "Feature",
      "geometry": {
        "type": "Point",
        "coordinates": [
          73.37798190000001,
          36.246957
        ]
      },
      "properties": {
        "id": 3996632881,
        "name": "Unnamed",
        "tourism": "motel"
      }
    },
    {
      "type": "Feature",
      "geometry": {
        "type": "Point",
        "coordinates": [
          73.3777601,
          36.246959000000004
        ]
      },
      "properties": {
        "id": 3996632882,
        "name": "Unnamed",
        "tourism": "motel"
      }
    },
    {
      "type": "Feature",
      "geometry": {
        "type": "Point",
        "coordinates": [
          73.44462820000001,
          36.230999600000004
        ]
      },
      "properties": {
        "id": 3997211760,
        "name": "Al-Falah Hotel",
        "tourism": "hotel"
      }
    },
    {
      "type": "Feature",
      "geometry": {
        "type": "Point",
        "coordinates": [
          71.78034020000001,
          35.657371700000006
        ]
      },
      "properties": {
        "id": 3997328960,
        "name": "Hotel",
        "tourism": "hotel"
      }
    },
    {
      "type": "Feature",
      "geometry": {
        "type": "Point",
        "coordinates": [
          71.76056430000001,
          35.667988
        ]
      },
      "properties": {
        "id": 3997454743,
        "name": "Hotel",
        "tourism": "hotel"
      }
    },
    {
      "type": "Feature",
      "geometry": {
        "type": "Point",
        "coordinates": [
          71.7604441,
          35.6681229
        ]
      },
      "properties": {
        "id": 3997454744,
        "name": "Hotel",
        "tourism": "hotel"
      }
    },
    {
      "type": "Feature",
      "geometry": {
        "type": "Point",
        "coordinates": [
          71.76063300000001,
          35.668204300000006
        ]
      },
      "properties": {
        "id": 3997454745,
        "name": "Hotel",
        "tourism": "hotel"
      }
    },
    {
      "type": "Feature",
      "geometry": {
        "type": "Point",
        "coordinates": [
          74.3254162,
          35.9235593
        ]
      },
      "properties": {
        "id": 4000771457,
        "name": "Hotel Riveria",
        "tourism": "hotel"
      }
    },
    {
      "type": "Feature",
      "geometry": {
        "type": "Point",
        "coordinates": [
          71.76251760000001,
          36.0115325
        ]
      },
      "properties": {
        "id": 4007196239,
        "name": "Hotel",
        "tourism": "hotel"
      }
    },
    {
      "type": "Feature",
      "geometry": {
        "type": "Point",
        "coordinates": [
          72.16139840000001,
          36.218911500000004
        ]
      },
      "properties": {
        "id": 4012638993,
        "name": "Hotel",
        "tourism": "hotel"
      }
    },
    {
      "type": "Feature",
      "geometry": {
        "type": "Point",
        "coordinates": [
          72.1644021,
          36.219819300000005
        ]
      },
      "properties": {
        "id": 4012638994,
        "name": "Hotel",
        "tourism": "hotel"
      }
    },
    {
      "type": "Feature",
      "geometry": {
        "type": "Point",
        "coordinates": [
          72.16509110000001,
          36.220371
        ]
      },
      "properties": {
        "id": 4012638995,
        "name": "Hotel",
        "tourism": "hotel"
      }
    },
    {
      "type": "Feature",
      "geometry": {
        "type": "Point",
        "coordinates": [
          72.1668947,
          36.220604800000004
        ]
      },
      "properties": {
        "id": 4012638996,
        "name": "Hotel",
        "tourism": "hotel"
      }
    },
    {
      "type": "Feature",
      "geometry": {
        "type": "Point",
        "coordinates": [
          73.32998500000001,
          36.3737903
        ]
      },
      "properties": {
        "id": 4013954232,
        "name": "Rest House",
        "tourism": "hotel"
      }
    },
    {
      "type": "Feature",
      "geometry": {
        "type": "Point",
        "coordinates": [
          72.45936990000001,
          36.085903200000004
        ]
      },
      "properties": {
        "id": 4025996589,
        "name": "Shandur Hotel",
        "tourism": "hotel"
      }
    },
    {
      "type": "Feature",
      "geometry": {
        "type": "Point",
        "coordinates": [
          74.67990750000001,
          36.3195038
        ]
      },
      "properties": {
        "id": 4027918423,
        "name": "Unnamed",
        "tourism": "guest_house"
      }
    },
    {
      "type": "Feature",
      "geometry": {
        "type": "Point",
        "coordinates": [
          74.8700398,
          36.4252151
        ]
      },
      "properties": {
        "id": 4032752183,
        "name": "Iqbal Guest House",
        "tourism": "guest_house"
      }
    },
    {
      "type": "Feature",
      "geometry": {
        "type": "Point",
        "coordinates": [
          65.53885890000001,
          25.445244700000003
        ]
      },
      "properties": {
        "id": 4081039503,
        "name": "Unnamed",
        "tourism": "hotel"
      }
    },
    {
      "type": "Feature",
      "geometry": {
        "type": "Point",
        "coordinates": [
          65.4640854,
          25.391349400000003
        ]
      },
      "properties": {
        "id": 4081039505,
        "name": "Baloch Beach Resort",
        "note": "Mir Rasool Bukhsh abad Kund Malir",
        "tourism": "hotel"
      }
    },
    {
      "type": "Feature",
      "geometry": {
        "type": "Point",
        "coordinates": [
          73.39108540000001,
          33.9044989
        ]
      },
      "properties": {
        "id": 4082005391,
        "name": "Marhaba Hotel",
        "name:ar": "فندق مرحبا",
        "tourism": "hotel"
      }
    },
    {
      "type": "Feature",
      "geometry": {
        "type": "Point",
        "coordinates": [
          67.11311810000001,
          24.9315402
        ]
      },
      "properties": {
        "id": 4100151200,
        "name": "boys hostel NED",
        "name:en": "Boys Hostel NED",
        "tourism": "hotel"
      }
    },
    {
      "type": "Feature",
      "geometry": {
        "type": "Point",
        "coordinates": [
          73.7252979,
          32.6375066
        ]
      },
      "properties": {
        "id": 4100232089,
        "name": "مغل ہاؤس",
        "addr:city": "ڈنگہ",
        "addr:postcode": "50280",
        "internet_access": "wlan",
        "name:en": "Mughal House",
        "name:ur": "مغل ہاؤس",
        "opening_hours": "24/7",
        "phone": "+923236918801",
        "tourism": "guest_house"
      }
    },
    {
      "type": "Feature",
      "geometry": {
        "type": "Point",
        "coordinates": [
          71.32870750000001,
          32.4513994
        ]
      },
      "properties": {
        "id": 4106773191,
        "name": "Chashma guest house",
        "tourism": "guest_house"
      }
    },
    {
      "type": "Feature",
      "geometry": {
        "type": "Point",
        "coordinates": [
          73.4986544,
          31.302032900000004
        ]
      },
      "properties": {
        "id": 4109784389,
        "name": "Kot Khan Haji Wali Muhammad Khan Baloch",
        "addr:housenumber": "1",
        "addr:street": "Jaranwala Lahore Road",
        "email": "Arslanbaloch145@gmail.com",
        "internet_access": "wlan",
        "opening_hours": "24/7",
        "phone": "+923487438500",
        "tourism": "guest_house"
      }
    },
    {
      "type": "Feature",
      "geometry": {
        "type": "Point",
        "coordinates": [
          71.5440875,
          34.000936700000004
        ]
      },
      "properties": {
        "id": 4112393499,
        "name": "Shiraz Arena",
        "tourism": "hotel"
      }
    },
    {
      "type": "Feature",
      "geometry": {
        "type": "Point",
        "coordinates": [
          73.03740810000001,
          33.5796317
        ]
      },
      "properties": {
        "id": 4119583189,
        "name": "Naeem Uncle",
        "tourism": "guest_house"
      }
    },
    {
      "type": "Feature",
      "geometry": {
        "type": "Point",
        "coordinates": [
          73.0119614,
          33.6712342
        ]
      },
      "properties": {
        "id": 4124181391,
        "name": "Tariq Chacho",
        "addr:housenumber": "668",
        "phone": "03012215033",
        "tourism": "guest_house"
      }
    },
    {
      "type": "Feature",
      "geometry": {
        "type": "Point",
        "coordinates": [
          73.1348679,
          33.587050700000006
        ]
      },
      "properties": {
        "id": 4124239790,
        "name": "Shafiq Uncle",
        "tourism": "guest_house"
      }
    },
    {
      "type": "Feature",
      "geometry": {
        "type": "Point",
        "coordinates": [
          71.4421478,
          33.9702356
        ]
      },
      "properties": {
        "id": 4125488090,
        "name": "Zaver Pearl Continental Hotel",
        "tourism": "hotel"
      }
    },
    {
      "type": "Feature",
      "geometry": {
        "type": "Point",
        "coordinates": [
          73.3946738,
          33.9064855
        ]
      },
      "properties": {
        "id": 4154699789,
        "name": "Lala Zar",
        "internet_access": "wlan",
        "opening_hours": "24/7",
        "tourism": "hotel"
      }
    },
    {
      "type": "Feature",
      "geometry": {
        "type": "Point",
        "coordinates": [
          74.41117840000001,
          31.499949100000002
        ]
      },
      "properties": {
        "id": 4156352589,
        "name": "My Home",
        "addr:housenumber": "807/2",
        "addr:street": "Street 3,Ali Park, Nadir Abad Bedian Road",
        "opening_hours": "24/7",
        "phone": "+923218411189",
        "tourism": "guest_house"
      }
    },
    {
      "type": "Feature",
      "geometry": {
        "type": "Point",
        "coordinates": [
          74.1795558,
          31.375071500000004
        ]
      },
      "properties": {
        "id": 4158937589,
        "name": "sahab kaka",
        "tourism": "guest_house"
      }
    },
    {
      "type": "Feature",
      "geometry": {
        "type": "Point",
        "coordinates": [
          73.77165620000001,
          33.1448727
        ]
      },
      "properties": {
        "id": 4166005090,
        "name": "Unnamed",
        "tourism": "guest_house"
      }
    },
    {
      "type": "Feature",
      "geometry": {
        "type": "Point",
        "coordinates": [
          67.7258166,
          25.745758700000003
        ]
      },
      "properties": {
        "id": 4173552893,
        "name": "Kerchant Wild Life Rest House",
        "tourism": "guest_house"
      }
    },
    {
      "type": "Feature",
      "geometry": {
        "type": "Point",
        "coordinates": [
          74.2955872,
          31.564170400000002
        ]
      },
      "properties": {
        "id": 4178731089,
        "name": "Unnamed",
        "tourism": "hotel"
      }
    },
    {
      "type": "Feature",
      "geometry": {
        "type": "Point",
        "coordinates": [
          73.1448888,
          29.615136700000004
        ]
      },
      "properties": {
        "id": 4193125101,
        "name": "Unnamed",
        "tourism": "guest_house"
      }
    },
    {
      "type": "Feature",
      "geometry": {
        "type": "Point",
        "coordinates": [
          73.49854040000001,
          31.302107000000003
        ]
      },
      "properties": {
        "id": 4194453390,
        "name": "kot khan haji Wali Muhammad khan baloch",
        "internet_access": "wlan",
        "phone": "03454747148",
        "tourism": "guest_house"
      }
    },
    {
      "type": "Feature",
      "geometry": {
        "type": "Point",
        "coordinates": [
          73.4955788,
          34.0281402
        ]
      },
      "properties": {
        "id": 4210139789,
        "name": "Al Madina Hotel",
        "tourism": "hotel"
      }
    },
    {
      "type": "Feature",
      "geometry": {
        "type": "Point",
        "coordinates": [
          72.90657080000001,
          33.6493066
        ]
      },
      "properties": {
        "id": 4210201289,
        "name": "tarnol",
        "addr:housenumber": "47",
        "addr:postcode": "46000",
        "addr:street": "Grand Trunk Road",
        "tourism": "guest_house"
      }
    },
    {
      "type": "Feature",
      "geometry": {
        "type": "Point",
        "coordinates": [
          72.9860098,
          33.6998298
        ]
      },
      "properties": {
        "id": 4210504304,
        "name": "VIBRACTIVE",
        "tourism": "guest_house"
      }
    },
    {
      "type": "Feature",
      "geometry": {
        "type": "Point",
        "coordinates": [
          73.03558000000001,
          33.6457622
        ]
      },
      "properties": {
        "id": 4222280108,
        "name": "Kabana Restaurant ",
        "addr:housenumber": "I-10 Markaz",
        "addr:street": "Kurang Road",
        "tourism": "hotel"
      }
    },
    {
      "type": "Feature",
      "geometry": {
        "type": "Point",
        "coordinates": [
          73.4017364,
          33.920348000000004
        ]
      },
      "properties": {
        "id": 4226185291,
        "name": "Xenhua flats",
        "tourism": "guest_house"
      }
    },
    {
      "type": "Feature",
      "geometry": {
        "type": "Point",
        "coordinates": [
          73.03277010000001,
          33.578907900000004
        ]
      },
      "properties": {
        "id": 4226850392,
        "name": "Javaid Uncle",
        "tourism": "guest_house"
      }
    },
    {
      "type": "Feature",
      "geometry": {
        "type": "Point",
        "coordinates": [
          72.9163867,
          33.6400987
        ]
      },
      "properties": {
        "id": 4227844289,
        "name": "Almas Uncle",
        "tourism": "guest_house"
      }
    },
    {
      "type": "Feature",
      "geometry": {
        "type": "Point",
        "coordinates": [
          74.3095885,
          31.572853200000004
        ]
      },
      "properties": {
        "id": 4230205789,
        "name": "Gcu Guest House",
        "tourism": "guest_house"
      }
    },
    {
      "type": "Feature",
      "geometry": {
        "type": "Point",
        "coordinates": [
          67.07053810000001,
          24.7779929
        ]
      },
      "properties": {
        "id": 4230409690,
        "name": "Nescom guest house",
        "tourism": "guest_house"
      }
    },
    {
      "type": "Feature",
      "geometry": {
        "type": "Point",
        "coordinates": [
          74.3040553,
          31.537252700000003
        ]
      },
      "properties": {
        "id": 4234002501,
        "name": "Baloch House",
        "addr:housenumber": "263N Samanabad",
        "addr:postcode": "54500",
        "internet_access": "wlan",
        "name:en": "Baloch Guest House",
        "phone": "03224441915",
        "tourism": "guest_house"
      }
    },
    {
      "type": "Feature",
      "geometry": {
        "type": "Point",
        "coordinates": [
          72.40366,
          34.797236600000005
        ]
      },
      "properties": {
        "id": 4236823290,
        "name": "Swat View Hotel",
        "addr:street": "N-95 highway, Fizagat Sangota, Swat",
        "email": "hotelswatview@gmail.com",
        "internet_access": "wlan",
        "opening_hours": "24/7",
        "phone": "0946 885166-77",
        "tourism": "hotel"
      }
    },
    {
      "type": "Feature",
      "geometry": {
        "type": "Point",
        "coordinates": [
          74.32481080000001,
          31.520387900000003
        ]
      },
      "properties": {
        "id": 4238888690,
        "name": "City Hotel",
        "addr:street": "Wahdat Road",
        "tourism": "hotel"
      }
    },
    {
      "type": "Feature",
      "geometry": {
        "type": "Point",
        "coordinates": [
          74.32484740000001,
          31.520523100000002
        ]
      },
      "properties": {
        "id": 4238954189,
        "name": "City Hotel",
        "addr:street": "Wahdat Road",
        "tourism": "hotel"
      }
    },
    {
      "type": "Feature",
      "geometry": {
        "type": "Point",
        "coordinates": [
          73.0809062,
          33.490505000000006
        ]
      },
      "properties": {
        "id": 4241121793,
        "name": "Imran Sb (M.Ch)",
        "tourism": "guest_house"
      }
    },
    {
      "type": "Feature",
      "geometry": {
        "type": "Point",
        "coordinates": [
          73.3967987,
          33.914633300000006
        ]
      },
      "properties": {
        "id": 4248664710,
        "name": "pasha guest house",
        "tourism": "guest_house"
      }
    },
    {
      "type": "Feature",
      "geometry": {
        "type": "Point",
        "coordinates": [
          71.02592890000001,
          29.344750100000002
        ]
      },
      "properties": {
        "id": 4262711495,
        "name": "Unnamed",
        "tourism": "motel"
      }
    },
    {
      "type": "Feature",
      "geometry": {
        "type": "Point",
        "coordinates": [
          71.0157657,
          29.349572900000002
        ]
      },
      "properties": {
        "id": 4262751990,
        "name": "Unnamed",
        "tourism": "hotel"
      }
    },
    {
      "type": "Feature",
      "geometry": {
        "type": "Point",
        "coordinates": [
          71.02377700000001,
          29.3424973
        ]
      },
      "properties": {
        "id": 4262799189,
        "name": "Unnamed",
        "tourism": "guest_house"
      }
    },
    {
      "type": "Feature",
      "geometry": {
        "type": "Point",
        "coordinates": [
          73.46046120000001,
          34.344178400000004
        ]
      },
      "properties": {
        "id": 4269761200,
        "name": "Saeban Guest House",
        "addr:postcode": "13100",
        "addr:street": "lower chatter",
        "email": "rkhan.isb@gmail.com",
        "internet_access": "wlan",
        "opening_hours": "24/7",
        "phone": "03215091757",
        "tourism": "guest_house"
      }
    },
    {
      "type": "Feature",
      "geometry": {
        "type": "Point",
        "coordinates": [
          73.48444830000001,
          33.992740000000005
        ]
      },
      "properties": {
        "id": 4269790691,
        "name": "Jungal Hotel",
        "tourism": "hotel"
      }
    },
    {
      "type": "Feature",
      "geometry": {
        "type": "Point",
        "coordinates": [
          72.94955150000001,
          30.294754700000002
        ]
      },
      "properties": {
        "id": 4271160836,
        "name": "Unnamed",
        "tourism": "guest_house"
      }
    },
    {
      "type": "Feature",
      "geometry": {
        "type": "Point",
        "coordinates": [
          73.04193910000001,
          33.581255600000006
        ]
      },
      "properties": {
        "id": 4275464990,
        "name": "22  No",
        "tourism": "guest_house"
      }
    },
    {
      "type": "Feature",
      "geometry": {
        "type": "Point",
        "coordinates": [
          72.15750990000001,
          32.572276900000006
        ]
      },
      "properties": {
        "id": 4279076218,
        "name": "Mehriya Hotel",
        "addr:city": "نوشہرہ",
        "addr:city:ar": "نوشهرة",
        "addr:city:ur": "نوشہرہ",
        "amenity": "restaurant",
        "beds": "8",
        "cuisine": "regional",
        "delivery": "no",
        "name:ar": "فندق مهرية",
        "name:en": "Mehriya Hotel",
        "name:ur": "مہریہ ہوٹل",
        "rooms": "4",
        "smoking": "yes",
        "takeaway": "yes",
        "tourism": "hotel"
      }
    },
    {
      "type": "Feature",
      "geometry": {
        "type": "Point",
        "coordinates": [
          74.1823274,
          31.375673300000003
        ]
      },
      "properties": {
        "id": 4286607189,
        "name": "My home",
        "tourism": "guest_house"
      }
    },
    {
      "type": "Feature",
      "geometry": {
        "type": "Point",
        "coordinates": [
          71.25567140000001,
          29.1510789
        ]
      },
      "properties": {
        "id": 4287496893,
        "name": "Unnamed",
        "tourism": "motel"
      }
    },
    {
      "type": "Feature",
      "geometry": {
        "type": "Point",
        "coordinates": [
          71.46501950000001,
          33.523284100000005
        ]
      },
      "properties": {
        "id": 4290840992,
        "name": "Bhutan Sharif",
        "tourism": "guest_house"
      }
    },
    {
      "type": "Feature",
      "geometry": {
        "type": "Point",
        "coordinates": [
          73.14993510000001,
          31.462314600000003
        ]
      },
      "properties": {
        "id": 4291073889,
        "name": "Rector's House",
        "addr:city": "فیصل آباد",
        "addr:city:en": "Faisalabad",
        "addr:city:fr": "Faisalabad",
        "addr:city:pa": "ਫ਼ੈਸਲਾਬਾਦ",
        "addr:city:pnb": "فیصل آباد",
        "addr:city:ur": "فیصل آباد",
        "addr:street": "Faisalabad-Sheikhupura-Lahore Road",
        "tourism": "guest_house"
      }
    },
    {
      "type": "Feature",
      "geometry": {
        "type": "Point",
        "coordinates": [
          73.1512357,
          31.463410600000003
        ]
      },
      "properties": {
        "id": 4291073890,
        "name": "House No. A-3",
        "addr:city": "National Colony",
        "addr:street": "Bagewal Road",
        "tourism": "guest_house"
      }
    },
    {
      "type": "Feature",
      "geometry": {
        "type": "Point",
        "coordinates": [
          71.4931148,
          32.4569879
        ]
      },
      "properties": {
        "id": 4291200991,
        "name": "Almasoom Hotel",
        "tourism": "hotel"
      }
    },
    {
      "type": "Feature",
      "geometry": {
        "type": "Point",
        "coordinates": [
          71.41609960000001,
          32.3649276
        ]
      },
      "properties": {
        "id": 4292829935,
        "name": "Ali Nawaz Hotel",
        "tourism": "hotel"
      }
    },
    {
      "type": "Feature",
      "geometry": {
        "type": "Point",
        "coordinates": [
          67.02409,
          24.858630500000004
        ]
      },
      "properties": {
        "id": 4299348389,
        "name": "Al Rayyan Hotel",
        "addr:city": "Karachi",
        "addr:street": "Sarmad Road",
        "email": "hotelalrayyan786@yahoo.com",
        "internet_access": "wlan",
        "phone": "02135682742",
        "tourism": "hotel"
      }
    },
    {
      "type": "Feature",
      "geometry": {
        "type": "Point",
        "coordinates": [
          71.5478056,
          32.578450000000004
        ]
      },
      "properties": {
        "id": 4302473811,
        "name": "Faizan Hotel",
        "tourism": "hotel"
      }
    },
    {
      "type": "Feature",
      "geometry": {
        "type": "Point",
        "coordinates": [
          71.54722100000001,
          32.578283400000004
        ]
      },
      "properties": {
        "id": 4302473814,
        "name": "Qaiser",
        "tourism": "hotel"
      }
    },
    {
      "type": "Feature",
      "geometry": {
        "type": "Point",
        "coordinates": [
          74.28551870000001,
          31.459266900000003
        ]
      },
      "properties": {
        "id": 4303592393,
        "name": "Empire Marqee",
        "addr:street": "Johar Town",
        "tourism": "hotel"
      }
    },
    {
      "type": "Feature",
      "geometry": {
        "type": "Point",
        "coordinates": [
          71.112485,
          32.1586956
        ]
      },
      "properties": {
        "id": 4306296393,
        "name": "Malik Amanullah Guest House",
        "tourism": "guest_house"
      }
    },
    {
      "type": "Feature",
      "geometry": {
        "type": "Point",
        "coordinates": [
          71.20713950000001,
          30.986295600000002
        ]
      },
      "properties": {
        "id": 4306543750,
        "name": "Sofia Hotel & Restaurant",
        "tourism": "hotel"
      }
    },
    {
      "type": "Feature",
      "geometry": {
        "type": "Point",
        "coordinates": [
          71.22704420000001,
          30.778875300000003
        ]
      },
      "properties": {
        "id": 4306553031,
        "name": "Laraib Hotel & Restaurant",
        "tourism": "hotel"
      }
    },
    {
      "type": "Feature",
      "geometry": {
        "type": "Point",
        "coordinates": [
          71.9304554,
          32.6915647
        ]
      },
      "properties": {
        "id": 4307022570,
        "name": "Baba Dhari Wali Masjid",
        "tourism": "hotel"
      }
    },
    {
      "type": "Feature",
      "geometry": {
        "type": "Point",
        "coordinates": [
          71.9331288,
          32.6961543
        ]
      },
      "properties": {
        "id": 4307022571,
        "name": "Gohar Khan Wala Marka",
        "tourism": "hotel"
      }
    },
    {
      "type": "Feature",
      "geometry": {
        "type": "Point",
        "coordinates": [
          72.42444470000001,
          33.000157800000004
        ]
      },
      "properties": {
        "id": 4307048971,
        "name": "Driver Hotel",
        "tourism": "hotel"
      }
    },
    {
      "type": "Feature",
      "geometry": {
        "type": "Point",
        "coordinates": [
          72.41234650000001,
          32.970102100000005
        ]
      },
      "properties": {
        "id": 4307053192,
        "name": "Shaheen Hotel & Restaurant",
        "tourism": "hotel"
      }
    },
    {
      "type": "Feature",
      "geometry": {
        "type": "Point",
        "coordinates": [
          72.423366,
          33.003329400000005
        ]
      },
      "properties": {
        "id": 4307053218,
        "name": "Malik Mirza Hotel",
        "tourism": "hotel"
      }
    },
    {
      "type": "Feature",
      "geometry": {
        "type": "Point",
        "coordinates": [
          71.3291822,
          32.4502723
        ]
      },
      "properties": {
        "id": 4307703500,
        "name": "HOTEL",
        "opening_hours": "24/7",
        "tourism": "hotel"
      }
    },
    {
      "type": "Feature",
      "geometry": {
        "type": "Point",
        "coordinates": [
          73.11723520000001,
          31.4119114
        ]
      },
      "properties": {
        "id": 4309305692,
        "name": "Taj Mahal Banquet Hall",
        "addr:city": "فیصل آباد",
        "addr:city:en": "Faisalabad",
        "addr:city:fr": "Faisalabad",
        "addr:city:pa": "ਫ਼ੈਸਲਾਬਾਦ",
        "addr:city:pnb": "فیصل آباد",
        "addr:city:ur": "فیصل آباد",
        "addr:street": "Jaranwala Road",
        "phone": "03008889865",
        "tourism": "hotel"
      }
    },
    {
      "type": "Feature",
      "geometry": {
        "type": "Point",
        "coordinates": [
          74.3569873,
          31.503027100000004
        ]
      },
      "properties": {
        "id": 4310818403,
        "name": "Savoey Hotel",
        "tourism": "hotel"
      }
    },
    {
      "type": "Feature",
      "geometry": {
        "type": "Point",
        "coordinates": [
          71.4722289,
          31.996251300000004
        ]
      },
      "properties": {
        "id": 4316394276,
        "name": "Al Imran Family & Hotel",
        "tourism": "hotel"
      }
    },
    {
      "type": "Feature",
      "geometry": {
        "type": "Point",
        "coordinates": [
          72.27338750000001,
          32.2785425
        ]
      },
      "properties": {
        "id": 4316754131,
        "name": "Al AziZ Marriage Hall",
        "tourism": "hotel"
      }
    },
    {
      "type": "Feature",
      "geometry": {
        "type": "Point",
        "coordinates": [
          71.88244230000001,
          33.248399400000004
        ]
      },
      "properties": {
        "id": 4316801111,
        "name": "Tarakai Hotel",
        "tourism": "hotel"
      }
    },
    {
      "type": "Feature",
      "geometry": {
        "type": "Point",
        "coordinates": [
          70.7720177,
          32.6433185
        ]
      },
      "properties": {
        "id": 4316814881,
        "name": "Madina Hotel",
        "tourism": "hotel"
      }
    },
    {
      "type": "Feature",
      "geometry": {
        "type": "Point",
        "coordinates": [
          70.77217420000001,
          32.7952141
        ]
      },
      "properties": {
        "id": 4316814884,
        "name": "Sarai Naurang",
        "name:en": "village",
        "tourism": "hotel"
      }
    },
    {
      "type": "Feature",
      "geometry": {
        "type": "Point",
        "coordinates": [
          71.47370000000001,
          32.0056504
        ]
      },
      "properties": {
        "id": 4318308380,
        "name": "Al Imran Family & Hotel",
        "tourism": "hotel"
      }
    },
    {
      "type": "Feature",
      "geometry": {
        "type": "Point",
        "coordinates": [
          71.4223575,
          31.836576700000002
        ]
      },
      "properties": {
        "id": 4318722884,
        "name": "Al Imran Hotel",
        "tourism": "hotel"
      }
    },
    {
      "type": "Feature",
      "geometry": {
        "type": "Point",
        "coordinates": [
          71.3239164,
          31.653656700000003
        ]
      },
      "properties": {
        "id": 4318739123,
        "name": "وادی نمل ہوٹل خانسر",
        "addr:city": "خانسر",
        "addr:street": "ایم ایم روڈ",
        "name:en": "Wadi E Namal Hotel Khansir",
        "name:ur": "وادی نمل ہوٹل خانسر",
        "tourism": "hotel"
      }
    },
    {
      "type": "Feature",
      "geometry": {
        "type": "Point",
        "coordinates": [
          71.23099110000001,
          31.392679700000002
        ]
      },
      "properties": {
        "id": 4318767377,
        "name": "Bao Truck Hotel",
        "tourism": "hotel"
      }
    },
    {
      "type": "Feature",
      "geometry": {
        "type": "Point",
        "coordinates": [
          71.2319351,
          31.395754000000004
        ]
      },
      "properties": {
        "id": 4318767384,
        "name": "Ashraf 75 Hotel",
        "tourism": "hotel"
      }
    },
    {
      "type": "Feature",
      "geometry": {
        "type": "Point",
        "coordinates": [
          71.5374072,
          30.202613200000002
        ]
      },
      "properties": {
        "id": 4319151470,
        "name": "SNGPL Guest House",
        "tourism": "guest_house"
      }
    },
    {
      "type": "Feature",
      "geometry": {
        "type": "Point",
        "coordinates": [
          71.3581683,
          32.4422537
        ]
      },
      "properties": {
        "id": 4319887891,
        "name": "barbad hotal",
        "tourism": "hotel"
      }
    },
    {
      "type": "Feature",
      "geometry": {
        "type": "Point",
        "coordinates": [
          71.21009930000001,
          31.031325900000002
        ]
      },
      "properties": {
        "id": 4320097298,
        "name": "Al Makkah Hotel N Restaurant",
        "tourism": "hotel"
      }
    },
    {
      "type": "Feature",
      "geometry": {
        "type": "Point",
        "coordinates": [
          72.6748628,
          32.077539
        ]
      },
      "properties": {
        "id": 4320642617,
        "name": "Pak Continental PC",
        "tourism": "hotel"
      }
    },
    {
      "type": "Feature",
      "geometry": {
        "type": "Point",
        "coordinates": [
          72.67320190000001,
          32.077417000000004
        ]
      },
      "properties": {
        "id": 4320643945,
        "name": "Q's International",
        "tourism": "hotel"
      }
    },
    {
      "type": "Feature",
      "geometry": {
        "type": "Point",
        "coordinates": [
          73.4413224,
          33.9438965
        ]
      },
      "properties": {
        "id": 4321893088,
        "name": "Hotel One",
        "tourism": "hotel"
      }
    },
    {
      "type": "Feature",
      "geometry": {
        "type": "Point",
        "coordinates": [
          74.32869840000001,
          31.548827100000004
        ]
      },
      "properties": {
        "id": 4322685993,
        "name": "Lawrence view Hotel",
        "addr:city": "Lahore",
        "addr:street": "Lawrence Road",
        "tourism": "hotel"
      }
    },
    {
      "type": "Feature",
      "geometry": {
        "type": "Point",
        "coordinates": [
          73.04989710000001,
          33.7128505
        ]
      },
      "properties": {
        "id": 4322750489,
        "name": "Chateau Royale",
        "addr:housenumber": "1",
        "addr:postcode": "44000",
        "addr:street": "Street 64",
        "phone": "+92512260845",
        "tourism": "guest_house",
        "website": "www.chateauroyal.com.pk"
      }
    },
    {
      "type": "Feature",
      "geometry": {
        "type": "Point",
        "coordinates": [
          74.187448,
          34.795385700000004
        ]
      },
      "properties": {
        "id": 4323278996,
        "name": "Tabia Guest House",
        "addr:street": "Sharda Road",
        "internet_access": "wlan",
        "opening_hours": "24/7",
        "operator": "Raja Tugail Kayni",
        "phone": "03556196264",
        "tourism": "guest_house"
      }
    },
    {
      "type": "Feature",
      "geometry": {
        "type": "Point",
        "coordinates": [
          68.2164989,
          27.5535086
        ]
      },
      "properties": {
        "id": 4324762395,
        "name": "Bughio House Larkana",
        "addr:street": "Bunder Road",
        "tourism": "guest_house"
      }
    },
    {
      "type": "Feature",
      "geometry": {
        "type": "Point",
        "coordinates": [
          73.70853410000001,
          32.9558022
        ]
      },
      "properties": {
        "id": 4327146591,
        "name": "Al-Bilal house",
        "addr:street": "janjua town",
        "name:en": "Al-Bilal house",
        "phone": "03219509163",
        "tourism": "guest_house"
      }
    },
    {
      "type": "Feature",
      "geometry": {
        "type": "Point",
        "coordinates": [
          73.7085325,
          32.9557334
        ]
      },
      "properties": {
        "id": 4327146690,
        "name": "Al-Bilal House",
        "addr:street": "janjua",
        "phone": "03219509163",
        "tourism": "guest_house"
      }
    },
    {
      "type": "Feature",
      "geometry": {
        "type": "Point",
        "coordinates": [
          71.217465,
          30.9621503
        ]
      },
      "properties": {
        "id": 4327555492,
        "name": "Darwesh Hotel",
        "tourism": "hotel"
      }
    },
    {
      "type": "Feature",
      "geometry": {
        "type": "Point",
        "coordinates": [
          71.2092458,
          31.0026602
        ]
      },
      "properties": {
        "id": 4327569389,
        "name": "Sofia Hotel",
        "addr:housenumber": "3",
        "addr:postcode": "31450",
        "addr:street": "Mianwali - Muzaffargarh Road",
        "email": "kashif.javed.ali@gmail.com",
        "opening_hours": "Mo-Su 09:00-18:00",
        "operator": "ALi",
        "phone": "0923346761700",
        "tourism": "hotel"
      }
    },
    {
      "type": "Feature",
      "geometry": {
        "type": "Point",
        "coordinates": [
          71.20846780000001,
          30.997326700000002
        ]
      },
      "properties": {
        "id": 4327569489,
        "name": "Quetta Balochistan Hotel",
        "tourism": "hotel"
      }
    },
    {
      "type": "Feature",
      "geometry": {
        "type": "Point",
        "coordinates": [
          71.20905,
          31.004928600000003
        ]
      },
      "properties": {
        "id": 4327569490,
        "name": "Baoo Jee Hotel & Restaurant",
        "addr:housenumber": "5",
        "addr:postcode": "31450",
        "addr:street": "Fatepur Road Chowk Azam",
        "email": "baojee1@gmail.com",
        "internet_access": "wlan",
        "opening_hours": "24/7",
        "operator": "Kashif javed ALi",
        "phone": "0923318009000",
        "tourism": "hotel"
      }
    },
    {
      "type": "Feature",
      "geometry": {
        "type": "Point",
        "coordinates": [
          71.55055540000001,
          32.579064200000005
        ]
      },
      "properties": {
        "id": 4327680640,
        "name": "Flavor City Hotel & Restaurant",
        "tourism": "hotel"
      }
    },
    {
      "type": "Feature",
      "geometry": {
        "type": "Point",
        "coordinates": [
          71.54732820000001,
          32.5808006
        ]
      },
      "properties": {
        "id": 4327680653,
        "name": "Gul",
        "tourism": "hotel"
      }
    },
    {
      "type": "Feature",
      "geometry": {
        "type": "Point",
        "coordinates": [
          71.9957997,
          32.8830371
        ]
      },
      "properties": {
        "id": 4327705512,
        "name": "Rahees Hotel",
        "tourism": "hotel"
      }
    },
    {
      "type": "Feature",
      "geometry": {
        "type": "Point",
        "coordinates": [
          71.76826650000001,
          32.640140300000006
        ]
      },
      "properties": {
        "id": 4327707354,
        "name": "Al Makkah Hotel & Restaurant",
        "tourism": "hotel"
      }
    },
    {
      "type": "Feature",
      "geometry": {
        "type": "Point",
        "coordinates": [
          71.5707582,
          32.763156300000006
        ]
      },