{
  "type": "FeatureCollection",
  "features": [
    {
      "type": "Feature",
      "geometry": {
        "type": "Point",
        "coordinates": [
          73.05704030000001,
          33.738366600000006
        ]
      },
      "properties": {
        "id": 211325636,
        "name": "Daman-e-Koh",
        "addr:street": "Damn-i-koh Road",
        "amenity": "restaurant",
        "cuisine": "burger;tea;coffee_shop;asian",
        "is_in": "Islamabad",
        "opening_hours": "24/7",
        "tourism": "viewpoint"
      }
    },
    {
      "type": "Feature",
      "geometry": {
        "type": "Point",
        "coordinates": [
          67.21444840000001,
          24.985007000000003
        ]
      },
      "properties": {
        "id": 253180176,
        "name": "Khanji - Highway",
        "addr:city": "Karachi",
        "addr:street": "Super Highway",
        "amenity": "restaurant",
        "cuisine": "regional",
        "delivery": "no",
        "outdoor_seating": "yes",
        "smoking": "yes",
        "takeaway": "yes"
      }
    },
    {
      "type": "Feature",
      "geometry": {
        "type": "Point",
        "coordinates": [
          73.05767820000001,
          33.725947500000004
        ]
      },
      "properties": {
        "id": 254975704,
        "name": "The Hot Spot",
        "addr:city": "اسلام آباد",
        "addr:city:ar": "إسلام آباد",
        "addr:city:en": "Islamabad",
        "addr:city:ks": "اِسلام آبادٖ",
        "addr:city:pnb": "اسلام آباد",
        "addr:city:ps": "اسلام آباد",
        "addr:city:sd": "اسلام آباد",
        "addr:city:ur": "اسلام آباد",
        "addr:street": "Street 3",
        "amenity": "cafe"
      }
    },
    {
      "type": "Feature",
      "geometry": {
        "type": "Point",
        "coordinates": [
          73.05780270000001,
          33.7259527
        ]
      },
      "properties": {
        "id": 254975815,
        "name": "The Gelato Affair",
        "amenity": "cafe",
        "is_in": "Gol Market, F-7/3, Islamabad"
      }
    },
    {
      "type": "Feature",
      "geometry": {
        "type": "Point",
        "coordinates": [
          73.05794,
          33.7260597
        ]
      },
      "properties": {
        "id": 254975882,
        "name": "گلوریا جینز",
        "addr:city": "اسلام آباد",
        "addr:city:ar": "إسلام آباد",
        "addr:city:ks": "اِسلام آبادٖ",
        "addr:city:pnb": "اسلام آباد",
        "addr:city:ps": "اسلام آباد",
        "addr:city:sd": "اسلام آباد",
        "addr:city:ur": "اسلام آباد",
        "addr:street": "Street 6",
        "amenity": "cafe",
        "brand": "گلوریا جینز",
        "brand:ar": "قلوريا جينز",
        "brand:ur": "گلوریا جینز",
        "brand:website": "https://gloriajeanscoffees.com.pk",
        "brand:wikidata": "Q2666365",
        "brand:wikipedia": "ar:قلوريا جينز كافيه",
        "brand:wikipedia:ar": "قلوريا جينز كافيه",
        "cuisine": "coffee_shop",
        "name:ar": "قلوريا جينز",
        "name:en": "Gloria Jean's",
        "name:ur": "گلوریا جینز",
        "official_name": "گلوریا جینز کافیز",
        "official_name:ar": "قلوريا جينز كافيه",
        "official_name:ur": "گلوریا جینز کافیز",
        "shop": "coffee"
      }
    },
    {
      "type": "Feature",
      "geometry": {
        "type": "Point",
        "coordinates": [
          73.05777490000001,
          33.7263387
        ]
      },
      "properties": {
        "id": 254976251,
        "name": "Golden Dragon",
        "addr:city": "اسلام آباد",
        "addr:city:ar": "إسلام آباد",
        "addr:city:en": "Islamabad",
        "addr:city:ks": "اِسلام آبادٖ",
        "addr:city:pnb": "اسلام آباد",
        "addr:city:ps": "اسلام آباد",
        "addr:city:sd": "اسلام آباد",
        "addr:city:ur": "اسلام آباد",
        "addr:street": "Street 4",
        "amenity": "restaurant"
      }
    },
    {
      "type": "Feature",
      "geometry": {
        "type": "Point",
        "coordinates": [
          73.0813998,
          33.736426200000004
        ]
      },
      "properties": {
        "id": 254979635,
        "name": "The Hot Spot Cafe",
        "amenity": "cafe",
        "is_in": "F-6/3, Islamabad"
      }
    },
    {
      "type": "Feature",
      "geometry": {
        "type": "Point",
        "coordinates": [
          74.3777319,
          31.518527700000003
        ]
      },
      "properties": {
        "id": 272344518,
        "name": "Services Club",
        "amenity": "cafe",
        "created_by": "Potlatch 0.9c"
      }
    },
    {
      "type": "Feature",
      "geometry": {
        "type": "Point",
        "coordinates": [
          74.3536993,
          31.537937200000002
        ]
      },
      "properties": {
        "id": 272381173,
        "name": "Unnamed",
        "amenity": "cafe",
        "created_by": "Potlatch 0.9c"
      }
    },
    {
      "type": "Feature",
      "geometry": {
        "type": "Point",
        "coordinates": [
          72.92123480000001,
          33.9710927
        ]
      },
      "properties": {
        "id": 297471981,
        "name": "Officer's Club (Marriage Hall)",
        "amenity": "cafe",
        "created_by": "Potlatch 0.10c"
      }
    },
    {
      "type": "Feature",
      "geometry": {
        "type": "Point",
        "coordinates": [
          73.1103956,
          33.784330100000005
        ]
      },
      "properties": {
        "id": 306544013,
        "name": "Isloo Grill, Pir Sohawa",
        "amenity": "restaurant",
        "is_in": "Pir Sohawa"
      }
    },
    {
      "type": "Feature",
      "geometry": {
        "type": "Point",
        "coordinates": [
          73.0935116,
          33.6378312
        ]
      },
      "properties": {
        "id": 317751386,
        "name": "Unnamed",
        "amenity": "cafe",
        "created_by": "Potlatch 0.10f"
      }
    },
    {
      "type": "Feature",
      "geometry": {
        "type": "Point",
        "coordinates": [
          72.28016690000001,
          32.2872397
        ]
      },
      "properties": {
        "id": 319135343,
        "name": "Bari's Biryani House",
        "amenity": "restaurant"
      }
    },
    {
      "type": "Feature",
      "geometry": {
        "type": "Point",
        "coordinates": [
          74.61805030000001,
          36.3077453
        ]
      },
      "properties": {
        "id": 444598353,
        "name": "Cafe and student biryani restaurent",
        "amenity": "cafe"
      }
    },
    {
      "type": "Feature",
      "geometry": {
        "type": "Point",
        "coordinates": [
          72.927503,
          33.9951571
        ]
      },
      "properties": {
        "id": 482878992,
        "name": "پیزا ہٹ",
        "amenity": "fast_food",
        "brand": "پیزا ہٹ",
        "brand:ar": "بيتزا هت",
        "brand:en": "Pizza Hut",
        "brand:fa": "پیتزا هات",
        "brand:pnb": "پزا ہٹ",
        "brand:ur": "پیزا ہٹ",
        "brand:wikidata": "Q191615",
        "brand:wikipedia": "ur:پیزا ہٹ",
        "brand:wikipedia:ar": "بيتزا هت",
        "brand:wikipedia:fa": "پیتزا هات",
        "brand:wikipedia:pnb": "پزا ہٹ",
        "brand:wikipedia:ur": "پیزا ہٹ",
        "name:ar": "بيتزا هت",
        "name:en": "Pizza Hut",
        "name:fa": "پیتزا هات",
        "name:pnb": "پزا ہٹ",
        "name:ur": "پیزا ہٹ"
      }
    },
    {
      "type": "Feature",
      "geometry": {
        "type": "Point",
        "coordinates": [
          74.30781080000001,
          31.503686500000004
        ]
      },
      "properties": {
        "id": 526681563,
        "name": "Main Cafeteria",
        "amenity": "cafe",
        "key": "OGSA, Department of Geography"
      }
    },
    {
      "type": "Feature",
      "geometry": {
        "type": "Point",
        "coordinates": [
          74.3068676,
          31.497104500000003
        ]
      },
      "properties": {
        "id": 526690133,
        "name": "Main Cafeteria",
        "amenity": "restaurant",
        "key": "Punjab University Lahore"
      }
    },
    {
      "type": "Feature",
      "geometry": {
        "type": "Point",
        "coordinates": [
          71.7570867,
          29.377384000000003
        ]
      },
      "properties": {
        "id": 526707546,
        "name": "main cafe",
        "amenity": "cafe",
        "key": "Islamia University Bahawalpur",
        "opening_hours": "Mo-Su 09:00-19:00"
      }
    },
    {
      "type": "Feature",
      "geometry": {
        "type": "Point",
        "coordinates": [
          74.37815160000001,
          31.4753496
        ]
      },
      "properties": {
        "id": 533746184,
        "name": "ڈنکن ڈونٹس",
        "amenity": "fast_food",
        "brand": "ڈنکن ڈونٹس",
        "brand:ar": "دانكن دونتس",
        "brand:ur": "ڈنکن ڈونٹس",
        "brand:wikidata": "Q847743",
        "brand:wikipedia": "ar:دانكن دونتس",
        "cuisine": "donut;coffee_shop",
        "name:ar": "دانكن دونتس",
        "name:en": "Dunkin' Donuts",
        "name:ur": "ڈنکن ڈونٹس",
        "takeaway": "yes"
      }
    },
    {
      "type": "Feature",
      "geometry": {
        "type": "Point",
        "coordinates": [
          74.37857480000001,
          31.474701800000002
        ]
      },
      "properties": {
        "id": 533746262,
        "name": "Gourmet Grill",
        "amenity": "restaurant"
      }
    },
    {
      "type": "Feature",
      "geometry": {
        "type": "Point",
        "coordinates": [
          74.37924430000001,
          31.4735599
        ]
      },
      "properties": {
        "id": 533746378,
        "name": "Bundu Khan",
        "amenity": "restaurant"
      }
    },
    {
      "type": "Feature",
      "geometry": {
        "type": "Point",
        "coordinates": [
          74.37656910000001,
          31.474390100000004
        ]
      },
      "properties": {
        "id": 533746576,
        "name": "Unnamed",
        "amenity": "fast_food"
      }
    },
    {
      "type": "Feature",
      "geometry": {
        "type": "Point",
        "coordinates": [
          74.3766437,
          31.473398800000002
        ]
      },
      "properties": {
        "id": 533746600,
        "name": "Unnamed",
        "amenity": "fast_food"
      }
    },
    {
      "type": "Feature",
      "geometry": {
        "type": "Point",
        "coordinates": [
          74.37923570000001,
          31.474167500000004
        ]
      },
      "properties": {
        "id": 533747360,
        "name": "گلوریا جینز",
        "amenity": "cafe",
        "brand": "گلوریا جینز",
        "brand:ar": "قلوريا جينز",
        "brand:ur": "گلوریا جینز",
        "brand:website": "https://gloriajeanscoffees.com.pk",
        "brand:wikidata": "Q2666365",
        "brand:wikipedia": "ar:قلوريا جينز كافيه",
        "brand:wikipedia:ar": "قلوريا جينز كافيه",
        "cuisine": "coffee_shop",
        "name:ar": "قلوريا جينز",
        "name:en": "Gloria Jean's",
        "name:ur": "گلوریا جینز",
        "official_name": "گلوریا جینز کافیز",
        "official_name:ar": "قلوريا جينز كافيه",
        "official_name:ur": "گلوریا جینز کافیز",
        "shop": "coffee",
        "takeaway": "yes"
      }
    },
    {
      "type": "Feature",
      "geometry": {
        "type": "Point",
        "coordinates": [
          71.49405320000001,
          30.270679200000004
        ]
      },
      "properties": {
        "id": 603101022,
        "name": "Dera Inn",
        "amenity": "restaurant",
        "cuisine": "international",
        "opening_hours": "Mo-Su 08:00-23:00",
        "source": "local survey"
      }
    },
    {
      "type": "Feature",
      "geometry": {
        "type": "Point",
        "coordinates": [
          72.64680080000001,
          30.147629900000002
        ]
      },
      "properties": {
        "id": 618587836,
        "name": "Deewan-e-Khas",
        "amenity": "restaurant"
      }
    },
    {
      "type": "Feature",
      "geometry": {
        "type": "Point",
        "coordinates": [
          73.1093144,
          33.5750237
        ]
      },
      "properties": {
        "id": 653112668,
        "name": "Unnamed",
        "amenity": "cafe"
      }
    },
    {
      "type": "Feature",
      "geometry": {
        "type": "Point",
        "coordinates": [
          73.0780948,
          33.735409800000006
        ]
      },
      "properties": {
        "id": 659727643,
        "name": "Table Talk",
        "amenity": "cafe",
        "is_in": "Kohsar Market, F-6/3, Islamabad"
      }
    },
    {
      "type": "Feature",
      "geometry": {
        "type": "Point",
        "coordinates": [
          73.05793050000001,
          33.7262071
        ]
      },
      "properties": {
        "id": 659730873,
        "name": "Howdy",
        "addr:city": "اسلام آباد",
        "addr:city:ar": "إسلام آباد",
        "addr:city:en": "Islamabad",
        "addr:city:ks": "اِسلام آبادٖ",
        "addr:city:pnb": "اسلام آباد",
        "addr:city:ps": "اسلام آباد",
        "addr:city:sd": "اسلام آباد",
        "addr:city:ur": "اسلام آباد",
        "addr:street": "Street 3",
        "amenity": "cafe"
      }
    },
    {
      "type": "Feature",
      "geometry": {
        "type": "Point",
        "coordinates": [
          72.9871111,
          33.6834934
        ]
      },
      "properties": {
        "id": 659736441,
        "name": "Food 24 Hours",
        "amenity": "fast_food",
        "is_in": "F-11 Markaz, Islamabad",
        "shop": "supermarket"
      }
    },
    {
      "type": "Feature",
      "geometry": {
        "type": "Point",
        "coordinates": [
          73.0749265,
          33.7294496
        ]
      },
      "properties": {
        "id": 660960200,
        "name": "Islamabad Vintage Quisine",
        "addr:city": "اسلام آباد",
        "addr:city:ar": "إسلام آباد",
        "addr:city:en": "Islamabad",
        "addr:city:ks": "اِسلام آبادٖ",
        "addr:city:pnb": "اسلام آباد",
        "addr:city:ps": "اسلام آباد",
        "addr:city:sd": "اسلام آباد",
        "addr:city:ur": "اسلام آباد",
        "addr:street": "School Road",
        "amenity": "restaurant",
        "cuisine": "regional"
      }
    },
    {
      "type": "Feature",
      "geometry": {
        "type": "Point",
        "coordinates": [
          73.0617424,
          33.721965000000004
        ]
      },
      "properties": {
        "id": 660960870,
        "name": "Kitchen Cusine Grill",
        "addr:city": "اسلام آباد",
        "addr:city:ar": "إسلام آباد",
        "addr:city:en": "Islamabad",
        "addr:city:ks": "اِسلام آبادٖ",
        "addr:city:pnb": "اسلام آباد",
        "addr:city:ps": "اسلام آباد",
        "addr:city:sd": "اسلام آباد",
        "addr:city:ur": "اسلام آباد",
        "addr:street": "Bhitai Road",
        "amenity": "restaurant"
      }
    },
    {
      "type": "Feature",
      "geometry": {
        "type": "Point",
        "coordinates": [
          73.0621813,
          33.721747900000004
        ]
      },
      "properties": {
        "id": 660960871,
        "name": "Zefra Restaurant",
        "amenity": "restaurant",
        "is_in": "F-7/4, Islamabad"
      }
    },
    {
      "type": "Feature",
      "geometry": {
        "type": "Point",
        "coordinates": [
          73.07466980000001,
          33.729307600000006
        ]
      },
      "properties": {
        "id": 663520522,
        "name": "کینٹکی فرائیڈ چکن",
        "addr:city": "اسلام آباد",
        "addr:city:ar": "إسلام آباد",
        "addr:city:en": "Islamabad",
        "addr:city:ks": "اِسلام آبادٖ",
        "addr:city:pnb": "اسلام آباد",
        "addr:city:ps": "اسلام آباد",
        "addr:city:sd": "اسلام آباد",
        "addr:city:ur": "اسلام آباد",
        "addr:street": "School Road",
        "amenity": "fast_food",
        "brand": "کینٹکی فرائیڈ چکن",
        "brand:ar": "دجاج كنتاكي",
        "brand:en": "KFC",
        "brand:fa": "کی‌اف‌سی",
        "brand:ur": "کینٹکی فرائیڈ چکن",
        "brand:wikidata": "Q524757",
        "brand:wikipedia": "ur:کینٹکی فرائیڈ چکن",
        "brand:wikipedia:ar": "دجاج كنتاكي",
        "brand:wikipedia:fa": "کی‌اف‌سی",
        "brand:wikipedia:ur": "کینٹکی فرائیڈ چکن",
        "cuisine": "chicken",
        "name:ar": "دجاج كنتاكي",
        "name:en": "KFC",
        "name:fa": "کی‌اف‌سی",
        "name:ur": "کینٹکی فرائیڈ چکن",
        "takeaway": "yes"
      }
    },
    {
      "type": "Feature",
      "geometry": {
        "type": "Point",
        "coordinates": [
          72.00534400000001,
          34.6321315
        ]
      },
      "properties": {
        "id": 746250537,
        "name": "PTDC Restaurant",
        "amenity": "restaurant"
      }
    },
    {
      "type": "Feature",
      "geometry": {
        "type": "Point",
        "coordinates": [
          67.0694223,
          24.8095767
        ]
      },
      "properties": {
        "id": 769260701,
        "name": "Hot 'n' Spicy",
        "addr:city": "Karachi",
        "addr:country": "PK",
        "addr:housenumber": "Phase 6",
        "addr:place": "DHA Phase 6",
        "addr:province": "Sindh",
        "addr:suburb": "Defence Housing Authority",
        "amenity": "fast_food"
      }
    },
    {
      "type": "Feature",
      "geometry": {
        "type": "Point",
        "coordinates": [
          67.0614712,
          24.8081254
        ]
      },
      "properties": {
        "id": 769260705,
        "name": "Espresso Cafe",
        "addr:city": "Karachi",
        "addr:country": "PK",
        "addr:housenumber": "Phase 6",
        "addr:place": "DHA Phase 6",
        "addr:province": "Sindh",
        "addr:street": "Khayaban e Shahbaz",
        "addr:suburb": "Defence Housing Authority",
        "amenity": "cafe",
        "brand": "Espresso Coffee Houses",
        "operator": "Espresso Coffee Houses Private Limited",
        "phone": "(021) 111 39 33 77",
        "website": "http://www.espresso.com.pk/"
      }
    },
    {
      "type": "Feature",
      "geometry": {
        "type": "Point",
        "coordinates": [
          73.07536200000001,
          33.7303805
        ]
      },
      "properties": {
        "id": 800039814,
        "name": "Luna Caprese",
        "amenity": "restaurant"
      }
    },
    {
      "type": "Feature",
      "geometry": {
        "type": "Point",
        "coordinates": [
          73.0779705,
          33.735604900000006
        ]
      },
      "properties": {
        "id": 821664342,
        "name": "Mocca",
        "amenity": "cafe",
        "is_in": "Kohsar Market, F-6/3, Islamabad"
      }
    },
    {
      "type": "Feature",
      "geometry": {
        "type": "Point",
        "coordinates": [
          73.0623827,
          33.6105658
        ]
      },
      "properties": {
        "id": 885748362,
        "name": "Savour Food (\"Pulao Kabab\")",
        "amenity": "restaurant"
      }
    },
    {
      "type": "Feature",
      "geometry": {
        "type": "Point",
        "coordinates": [
          73.0718655,
          33.5852957
        ]
      },
      "properties": {
        "id": 925144068,
        "name": "مکڈونلڈز",
        "addr:city": "Rawalpindi, Punjab, Pakistan",
        "addr:street": "Airport Road",
        "amenity": "fast_food",
        "brand": "مکڈونلڈز",
        "brand:ar": "مكدونالدز",
        "brand:de": "McDonald’s",
        "brand:en": "McDonald's",
        "brand:fa": "مکدونالدز",
        "brand:pnb": "میکڈونلڈز",
        "brand:ps": "مکډونالډز",
        "brand:ur": "مکڈونلڈز",
        "brand:wikidata": "Q38076",
        "brand:wikipedia": "ur:مکڈونلڈز",
        "brand:wikipedia:ar": "مكدونالدز",
        "brand:wikipedia:fa": "مکدونالدز",
        "brand:wikipedia:pnb": "میکڈونلڈز",
        "brand:wikipedia:ps": "مکډونالډز",
        "brand:wikipedia:ur": "مکڈونلڈز",
        "cuisine": "burger",
        "name:ar": "مكدونالدز",
        "name:de": "McDonald’s",
        "name:en": "McDonald's",
        "name:fa": "مکدونالدز",
        "name:pnb": "میکڈونلڈز",
        "name:ps": "مکډونالډز",
        "name:ur": "مکڈونلڈز"
      }
    },
    {
      "type": "Feature",
      "geometry": {
        "type": "Point",
        "coordinates": [
          67.0902983,
          24.8831011
        ]
      },
      "properties": {
        "id": 933074606,
        "name": "ڈنکن ڈونٹس",
        "amenity": "fast_food",
        "brand": "ڈنکن ڈونٹس",
        "brand:ar": "دانكن دونتس",
        "brand:ur": "ڈنکن ڈونٹس",
        "brand:wikidata": "Q847743",
        "brand:wikipedia": "ar:دانكن دونتس",
        "cuisine": "donut",
        "name:ar": "دانكن دونتس",
        "name:en": "Dunkin' Donuts",
        "name:ur": "ڈنکن ڈونٹس"
      }
    },
    {
      "type": "Feature",
      "geometry": {
        "type": "Point",
        "coordinates": [
          67.0880587,
          24.874620200000003
        ]
      },
      "properties": {
        "id": 933074666,
        "name": "Chillis Fast Food",
        "amenity": "fast_food"
      }
    },
    {
      "type": "Feature",
      "geometry": {
        "type": "Point",
        "coordinates": [
          67.08781420000001,
          24.875342200000002
        ]
      },
      "properties": {
        "id": 933074672,
        "name": "Kaybees Fast Food",
        "addr:city": "Karachi",
        "addr:street": "Fatima Jinnah Road",
        "amenity": "fast_food"
      }
    },
    {
      "type": "Feature",
      "geometry": {
        "type": "Point",
        "coordinates": [
          68.87118330000001,
          27.694596900000004
        ]
      },
      "properties": {
        "id": 955236718,
        "name": "Kiran Bakers & Genral Store",
        "addr:city": "Sukkur",
        "addr:street": "Walis Road",
        "amenity": "restaurant"
      }
    },
    {
      "type": "Feature",
      "geometry": {
        "type": "Point",
        "coordinates": [
          68.8706334,
          27.6949697
        ]
      },
      "properties": {
        "id": 955237137,
        "name": "New Alam Gouste",
        "addr:city": "Sukkur",
        "addr:street": "Walis Road",
        "amenity": "restaurant"
      }
    },
    {
      "type": "Feature",
      "geometry": {
        "type": "Point",
        "coordinates": [
          73.0587849,
          33.7221222
        ]
      },
      "properties": {
        "id": 977855824,
        "name": "پیزا ہٹ",
        "addr:city": "اسلام آباد",
        "addr:city:ar": "إسلام آباد",
        "addr:city:en": "Islamabad",
        "addr:city:ks": "اِسلام آبادٖ",
        "addr:city:pnb": "اسلام آباد",
        "addr:city:ps": "اسلام آباد",
        "addr:city:sd": "اسلام آباد",
        "addr:city:ur": "اسلام آباد",
        "amenity": "restaurant",
        "brand": "پیزا ہٹ",
        "brand:ar": "بيتزا هت",
        "brand:en": "Pizza Hut",
        "brand:fa": "پیتزا هات",
        "brand:pnb": "پزا ہٹ",
        "brand:ur": "پیزا ہٹ",
        "brand:wikidata": "Q191615",
        "brand:wikipedia": "ur:پیزا ہٹ",
        "brand:wikipedia:ar": "بيتزا هت",
        "brand:wikipedia:fa": "پیتزا هات",
        "brand:wikipedia:pnb": "پزا ہٹ",
        "brand:wikipedia:ur": "پیزا ہٹ",
        "name:ar": "بيتزا هت",
        "name:en": "Pizza Hut",
        "name:fa": "پیتزا هات",
        "name:pnb": "پزا ہٹ",
        "name:ur": "پیزا ہٹ"
      }
    },
    {
      "type": "Feature",
      "geometry": {
        "type": "Point",
        "coordinates": [
          68.35793720000001,
          25.3691494
        ]
      },
      "properties": {
        "id": 1088992149,
        "name": "Unnamed",
        "addr:city": "حیدرآباد",
        "addr:city:en": "Hyderabad",
        "addr:city:fr": "Hyderâbâd",
        "addr:city:pa": "ਹੈਦਰਾਬਾਦ",
        "addr:city:ur": "حیدرآباد",
        "addr:street": "NAWAB MUZZAFAR ROAD;UNIT 7 MAIN ROAD",
        "amenity": "restaurant"
      }
    },
    {
      "type": "Feature",
      "geometry": {
        "type": "Point",
        "coordinates": [
          68.3580989,
          25.3693315
        ]
      },
      "properties": {
        "id": 1088992167,
        "name": "Unnamed",
        "addr:city": "حیدرآباد",
        "addr:city:en": "Hyderabad",
        "addr:city:fr": "Hyderâbâd",
        "addr:city:pa": "ਹੈਦਰਾਬਾਦ",
        "addr:city:ur": "حیدرآباد",
        "addr:street": "NAWAB MUZZAFAR ROAD;UNIT 7 MAIN ROAD",
        "amenity": "restaurant"
      }
    },
    {
      "type": "Feature",
      "geometry": {
        "type": "Point",
        "coordinates": [
          68.3556178,
          25.3738275
        ]
      },
      "properties": {
        "id": 1088992170,
        "name": "Balochistan Sajji",
        "addr:city": "حیدرآباد",
        "addr:city:en": "Hyderabad",
        "addr:city:fr": "Hyderâbâd",
        "addr:city:pa": "ਹੈਦਰਾਬਾਦ",
        "addr:city:ur": "حیدرآباد",
        "addr:street": "NAWAB MUZZAFAR ROAD;UNIT 7 MAIN ROAD",
        "amenity": "restaurant"
      }
    },
    {
      "type": "Feature",
      "geometry": {
        "type": "Point",
        "coordinates": [
          68.3581905,
          25.369394200000002
        ]
      },
      "properties": {
        "id": 1088992175,
        "name": "Unnamed",
        "amenity": "restaurant"
      }
    },
    {
      "type": "Feature",
      "geometry": {
        "type": "Point",
        "coordinates": [
          73.11234730000001,
          33.7209943
        ]
      },
      "properties": {
        "id": 1089595055,
        "name": "Canadian Club",
        "addr:city": "اسلام آباد",
        "addr:city:ar": "إسلام آباد",
        "addr:city:en": "Islamabad",
        "addr:city:ks": "اِسلام آبادٖ",
        "addr:city:pnb": "اسلام آباد",
        "addr:city:ps": "اسلام آباد",
        "addr:city:sd": "اسلام آباد",
        "addr:city:ur": "اسلام آباد",
        "addr:street": "Street 12",
        "amenity": "restaurant",
        "name:es": "Club Canadiense",
        "name:fr": "Club Canadien"
      }
    },
    {
      "type": "Feature",
      "geometry": {
        "type": "Point",
        "coordinates": [
          68.33723490000001,
          25.3802388
        ]
      },
      "properties": {
        "id": 1092236787,
        "name": "پیزا ہٹ",
        "addr:city": "حیدرآباد",
        "addr:city:en": "Hyderabad",
        "addr:city:fr": "Hyderâbâd",
        "addr:city:pa": "ਹੈਦਰਾਬਾਦ",
        "addr:city:ur": "حیدرآباد",
        "amenity": "restaurant",
        "brand": "پیزا ہٹ",
        "brand:ar": "بيتزا هت",
        "brand:fa": "پیتزا هات",
        "brand:pnb": "پزا ہٹ",
        "brand:ur": "پیزا ہٹ",
        "brand:wikidata": "Q191615",
        "brand:wikipedia": "ur:پیزا ہٹ",
        "brand:wikipedia:ar": "بيتزا هت",
        "brand:wikipedia:fa": "پیتزا هات",
        "brand:wikipedia:pnb": "پزا ہٹ",
        "brand:wikipedia:ur": "پیزا ہٹ",
        "name:ar": "بيتزا هت",
        "name:en": "Pizza Hut",
        "name:fa": "پیتزا هات",
        "name:pnb": "پزا ہٹ",
        "name:ur": "پیزا ہٹ"
      }
    },
    {
      "type": "Feature",
      "geometry": {
        "type": "Point",
        "coordinates": [
          68.3468407,
          25.3838034
        ]
      },
      "properties": {
        "id": 1092236796,
        "name": "Unnamed",
        "addr:city": "حیدرآباد",
        "addr:city:en": "Hyderabad",
        "addr:city:fr": "Hyderâbâd",
        "addr:city:pa": "ਹੈਦਰਾਬਾਦ",
        "addr:city:ur": "حیدرآباد",
        "addr:street": "SHAHBAZ FLYOVER",
        "amenity": "cafe"
      }
    },
    {
      "type": "Feature",
      "geometry": {
        "type": "Point",
        "coordinates": [
          68.3470446,
          25.383836400000003
        ]
      },
      "properties": {
        "id": 1092236836,
        "name": "Unnamed",
        "addr:city": "حیدرآباد",
        "addr:city:en": "Hyderabad",
        "addr:city:fr": "Hyderâbâd",
        "addr:city:pa": "ਹੈਦਰਾਬਾਦ",
        "addr:city:ur": "حیدرآباد",
        "addr:street": "SHAHBAZ FLYOVER",
        "amenity": "restaurant"
      }
    },
    {
      "type": "Feature",
      "geometry": {
        "type": "Point",
        "coordinates": [
          68.35819790000001,
          25.369790000000002
        ]
      },
      "properties": {
        "id": 1096869060,
        "name": "Tea Cafe",
        "addr:city": "حیدرآباد",
        "addr:city:en": "Hyderabad",
        "addr:city:fr": "Hyderâbâd",
        "addr:city:pa": "ਹੈਦਰਾਬਾਦ",
        "addr:city:ur": "حیدرآباد",
        "addr:street": "NAWAB MUZZAFAR ROAD;UNIT 7 MAIN ROAD",
        "amenity": "cafe"
      }
    },
    {
      "type": "Feature",
      "geometry": {
        "type": "Point",
        "coordinates": [
          68.36297470000001,
          25.366040800000004
        ]
      },
      "properties": {
        "id": 1096925234,
        "name": "Mujahid Cafe",
        "addr:city": "حیدرآباد",
        "addr:city:en": "Hyderabad",
        "addr:city:fr": "Hyderâbâd",
        "addr:city:pa": "ਹੈਦਰਾਬਾਦ",
        "addr:city:ur": "حیدرآباد",
        "addr:street": "AIRPORT ROAD",
        "amenity": "cafe"
      }
    },
    {
      "type": "Feature",
      "geometry": {
        "type": "Point",
        "coordinates": [
          68.3571302,
          25.369722000000003
        ]
      },
      "properties": {
        "id": 1096935318,
        "name": "Shama Tikka",
        "addr:city": "حیدرآباد",
        "addr:city:en": "Hyderabad",
        "addr:city:fr": "Hyderâbâd",
        "addr:city:pa": "ਹੈਦਰਾਬਾਦ",
        "addr:city:ur": "حیدرآباد",
        "addr:street": "NAWAB MUZZAFAR ROAD;UNIT 7 MAIN ROAD",
        "amenity": "fast_food"
      }
    },
    {
      "type": "Feature",
      "geometry": {
        "type": "Point",
        "coordinates": [
          68.35831040000001,
          25.369678600000004
        ]
      },
      "properties": {
        "id": 1096935324,
        "name": "small hotel",
        "addr:city": "حیدرآباد",
        "addr:city:en": "Hyderabad",
        "addr:city:fr": "Hyderâbâd",
        "addr:city:pa": "ਹੈਦਰਾਬਾਦ",
        "addr:city:ur": "حیدرآباد",
        "addr:street": "NAWAB MUZZAFAR ROAD;UNIT 7 MAIN ROAD",
        "amenity": "fast_food"
      }
    },
    {
      "type": "Feature",
      "geometry": {
        "type": "Point",
        "coordinates": [
          68.35810470000001,
          25.3665489
        ]
      },
      "properties": {
        "id": 1096935353,
        "name": "Piala Cafe",
        "addr:city": "حیدرآباد",
        "addr:city:en": "Hyderabad",
        "addr:city:fr": "Hyderâbâd",
        "addr:city:pa": "ਹੈਦਰਾਬਾਦ",
        "addr:city:ur": "حیدرآباد",
        "addr:street": "AIRPORT ROAD",
        "amenity": "cafe"
      }
    },
    {
      "type": "Feature",
      "geometry": {
        "type": "Point",
        "coordinates": [
          68.35891120000001,
          25.3569688
        ]
      },
      "properties": {
        "id": 1096945982,
        "name": "Cafe Piru",
        "addr:city": "حیدرآباد",
        "addr:city:en": "Hyderabad",
        "addr:city:fr": "Hyderâbâd",
        "addr:city:pa": "ਹੈਦਰਾਬਾਦ",
        "addr:city:ur": "حیدرآباد",
        "addr:street": "LATIFABAD 11 road;LATIFABAD",
        "amenity": "cafe"
      }
    },
    {
      "type": "Feature",
      "geometry": {
        "type": "Point",
        "coordinates": [
          68.34883540000001,
          25.367998300000004
        ]
      },
      "properties": {
        "id": 1096945992,
        "name": "Chai Hojaye",
        "addr:city": "حیدرآباد",
        "addr:city:en": "Hyderabad",
        "addr:city:fr": "Hyderâbâd",
        "addr:city:pa": "ਹੈਦਰਾਬਾਦ",
        "addr:city:ur": "حیدرآباد",
        "addr:street": "Unit No 6",
        "amenity": "cafe"
      }
    },
    {
      "type": "Feature",
      "geometry": {
        "type": "Point",
        "coordinates": [
          68.3490379,
          25.3664546
        ]
      },
      "properties": {
        "id": 1096945999,
        "name": "Shai Karak",
        "addr:city": "حیدرآباد",
        "addr:city:en": "Hyderabad",
        "addr:city:fr": "Hyderâbâd",
        "addr:city:pa": "ਹੈਦਰਾਬਾਦ",
        "addr:city:ur": "حیدرآباد",
        "addr:street": "Unit No.6",
        "amenity": "cafe"
      }
    },
    {
      "type": "Feature",
      "geometry": {
        "type": "Point",
        "coordinates": [
          68.3578705,
          25.358316400000003
        ]
      },
      "properties": {
        "id": 1096946003,
        "name": "biryani house",
        "amenity": "fast_food"
      }
    },
    {
      "type": "Feature",
      "geometry": {
        "type": "Point",
        "coordinates": [
          68.35807430000001,
          25.3581904
        ]
      },
      "properties": {
        "id": 1096946009,
        "name": "small hotel",
        "amenity": "restaurant"
      }
    },
    {
      "type": "Feature",
      "geometry": {
        "type": "Point",
        "coordinates": [
          68.34526910000001,
          25.383192100000002
        ]
      },
      "properties": {
        "id": 1099415531,
        "name": "Unnamed",
        "addr:city": "حیدرآباد",
        "addr:city:en": "Hyderabad",
        "addr:city:fr": "Hyderâbâd",
        "addr:city:pa": "ਹੈਦਰਾਬਾਦ",
        "addr:city:ur": "حیدرآباد",
        "addr:street": "SHAHBAZ FLYOVER",
        "amenity": "restaurant"
      }
    },
    {
      "type": "Feature",
      "geometry": {
        "type": "Point",
        "coordinates": [
          68.3642387,
          25.391091000000003
        ]
      },
      "properties": {
        "id": 1101279762,
        "name": "Hotel Faran",
        "addr:city": "حیدرآباد",
        "addr:city:en": "Hyderabad",
        "addr:city:fr": "Hyderâbâd",
        "addr:city:pa": "ਹੈਦਰਾਬਾਦ",
        "addr:city:ur": "حیدرآباد",
        "addr:street": "Chandni Cinema Road",
        "amenity": "restaurant"
      }
    },
    {
      "type": "Feature",
      "geometry": {
        "type": "Point",
        "coordinates": [
          68.2726406,
          25.4339435
        ]
      },
      "properties": {
        "id": 1104452105,
        "name": "canteen",
        "amenity": "cafe"
      }
    },
    {
      "type": "Feature",
      "geometry": {
        "type": "Point",
        "coordinates": [
          68.27246790000001,
          25.4340413
        ]
      },
      "properties": {
        "id": 1104452109,
        "name": "Unnamed",
        "amenity": "restaurant"
      }
    },
    {
      "type": "Feature",
      "geometry": {
        "type": "Point",
        "coordinates": [
          73.05531020000001,
          33.719935500000005
        ]
      },
      "properties": {
        "id": 1106378621,
        "name": "One potato two potato",
        "addr:city": "اسلام آباد",
        "addr:city:ar": "إسلام آباد",
        "addr:city:en": "Islamabad",
        "addr:city:ks": "اِسلام آبادٖ",
        "addr:city:pnb": "اسلام آباد",
        "addr:city:ps": "اسلام آباد",
        "addr:city:sd": "اسلام آباد",
        "addr:city:ur": "اسلام آباد",
        "addr:street": "College Road",
        "amenity": "fast_food"
      }
    },
    {
      "type": "Feature",
      "geometry": {
        "type": "Point",
        "coordinates": [
          73.0547032,
          33.7188394
        ]
      },
      "properties": {
        "id": 1106384012,
        "name": "cafe lazeez",
        "amenity": "restaurant"
      }
    },
    {
      "type": "Feature",
      "geometry": {
        "type": "Point",
        "coordinates": [
          70.3126283,
          28.421932700000003
        ]
      },
      "properties": {
        "id": 1145891578,
        "name": "Lamis Restaurant",
        "amenity": "restaurant"
      }
    },
    {
      "type": "Feature",
      "geometry": {
        "type": "Point",
        "coordinates": [
          71.52553320000001,
          34.0072935
        ]
      },
      "properties": {
        "id": 1224121362,
        "name": "کے ایف سی",
        "amenity": "restaurant",
        "brand": "KFC",
        "brand:ar": "دجاج كنتاكي",
        "brand:fa": "کی‌اف‌سی",
        "brand:wikipedia": "ur:کینٹکی فرائیڈ چکن",
        "brand:wikipedia:ar": "دجاج كنتاكي",
        "brand:wikipedia:fa": "کی‌اف‌سی",
        "brand:wikipedia:ur": "کینٹکی فرائیڈ چکن",
        "cuisine": "chicken",
        "name:ar": "دجاج كنتاكي",
        "name:fa": "کی‌اف‌سی",
        "name:ur": "کے ایف سی",
        "takeaway": "yes"
      }
    },
    {
      "type": "Feature",
      "geometry": {
        "type": "Point",
        "coordinates": [
          71.49214450000001,
          33.996944400000004
        ]
      },
      "properties": {
        "id": 1226368122,
        "name": "Jan's Deli;Naan Sense",
        "amenity": "cafe",
        "internet_access": "wlan"
      }
    },
    {
      "type": "Feature",
      "geometry": {
        "type": "Point",
        "coordinates": [
          71.4923809,
          33.997291700000005
        ]
      },
      "properties": {
        "id": 1226368841,
        "name": "Chief Grill",
        "amenity": "restaurant",
        "cuisine": "international"
      }
    },
    {
      "type": "Feature",
      "geometry": {
        "type": "Point",
        "coordinates": [
          71.48922200000001,
          33.9917304
        ]
      },
      "properties": {
        "id": 1226378419,
        "name": "Kazbah",
        "amenity": "restaurant",
        "cuisine": "international"
      }
    },
    {
      "type": "Feature",
      "geometry": {
        "type": "Point",
        "coordinates": [
          71.49466140000001,
          33.9986824
        ]
      },
      "properties": {
        "id": 1226713187,
        "name": "Thames Burger",
        "amenity": "fast_food",
        "cuisine": "burger"
      }
    },
    {
      "type": "Feature",
      "geometry": {
        "type": "Point",
        "coordinates": [
          67.3148238,
          29.8595788
        ]
      },
      "properties": {
        "id": 1236657819,
        "name": "Resturant",
        "amenity": "restaurant",
        "ele": "977.78",
        "source:ele": "gpx"
      }
    },
    {
      "type": "Feature",
      "geometry": {
        "type": "Point",
        "coordinates": [
          74.31551920000001,
          31.565460700000003
        ]
      },
      "properties": {
        "id": 1241932083,
        "name": "Bundu Khan",
        "amenity": "restaurant",
        "ele": "200.32",
        "source:ele": "gpx"
      }
    },
    {
      "type": "Feature",
      "geometry": {
        "type": "Point",
        "coordinates": [
          73.07799940000001,
          33.7299525
        ]
      },
      "properties": {
        "id": 1243928908,
        "name": "Nando's",
        "addr:city": "اسلام آباد",
        "addr:city:ar": "إسلام آباد",
        "addr:city:en": "Islamabad",
        "addr:city:ks": "اِسلام آبادٖ",
        "addr:city:pnb": "اسلام آباد",
        "addr:city:ps": "اسلام آباد",
        "addr:city:sd": "اسلام آباد",
        "addr:city:ur": "اسلام آباد",
        "addr:street": "Agha Khan Road",
        "amenity": "restaurant",
        "brand": "Nando's",
        "brand:wikidata": "Q3472954",
        "brand:wikipedia": "en:Nando's",
        "cuisine": "chicken;portuguese"
      }
    },
    {
      "type": "Feature",
      "geometry": {
        "type": "Point",
        "coordinates": [
          73.0325471,
          33.688281100000005
        ]
      },
      "properties": {
        "id": 1336800177,
        "name": "Mehraaj Hotel",
        "addr:housename": "Mehraaj Hotel",
        "addr:street": "Rohtas Road",
        "amenity": "restaurant",
        "source": "Yahoo + Local Knowledge"
      }
    },
    {
      "type": "Feature",
      "geometry": {
        "type": "Point",
        "coordinates": [
          73.04283980000001,
          33.685050000000004
        ]
      },
      "properties": {
        "id": 1340843878,
        "name": "Shanwari Resturant‎",
        "addr:street": "55",
        "amenity": "restaurant",
        "source": "Yahoo + Local knowlege"
      }
    },
    {
      "type": "Feature",
      "geometry": {
        "type": "Point",
        "coordinates": [
          71.5594087,
          34.0204974
        ]
      },
      "properties": {
        "id": 1350054380,
        "name": "Fork restaurant",
        "amenity": "restaurant",
        "source": "ABC"
      }
    },
    {
      "type": "Feature",
      "geometry": {
        "type": "Point",
        "coordinates": [
          73.0485574,
          33.59695180000001
        ]
      },
      "properties": {
        "id": 1357767174,
        "name": "Mei Kong",
        "amenity": "restaurant",
        "cuisine": "chinese"
      }
    },
    {
      "type": "Feature",
      "geometry": {
        "type": "Point",
        "coordinates": [
          73.0732986,
          33.5861681
        ]
      },
      "properties": {
        "id": 1363495811,
        "name": "Papasallis",
        "amenity": "restaurant"
      }
    },
    {
      "type": "Feature",
      "geometry": {
        "type": "Point",
        "coordinates": [
          74.3512606,
          31.514389200000004
        ]
      },
      "properties": {
        "id": 1384171068,
        "name": "Indulge",
        "addr:housenumber": "1709",
        "addr:street": "MM Alam Road",
        "amenity": "cafe"
      }
    },
    {
      "type": "Feature",
      "geometry": {
        "type": "Point",
        "coordinates": [
          72.9859069,
          33.684541
        ]
      },
      "properties": {
        "id": 1403061904,
        "name": "One Potato  Two Potato",
        "alt_name": "OP2P",
        "amenity": "fast_food",
        "int_name": "One Potato  Two Potato",
        "is_in": "F-11 Markaz, F-11, Islamabad"
      }
    },
    {
      "type": "Feature",
      "geometry": {
        "type": "Point",
        "coordinates": [
          73.09011070000001,
          33.5850213
        ]
      },
      "properties": {
        "id": 1412407873,
        "name": "Resturant",
        "amenity": "restaurant",
        "designation": "Bar B Q Resturant"
      }
    },
    {
      "type": "Feature",
      "geometry": {
        "type": "Point",
        "coordinates": [
          73.0885205,
          33.5863102
        ]
      },
      "properties": {
        "id": 1412407898,
        "name": "Unnamed",
        "amenity": "fast_food",
        "cuisine": "fast_food"
      }
    },
    {
      "type": "Feature",
      "geometry": {
        "type": "Point",
        "coordinates": [
          73.054089,
          33.595116000000004
        ]
      },
      "properties": {
        "id": 1414238153,
        "name": "Unnamed",
        "amenity": "fast_food"
      }
    },
    {
      "type": "Feature",
      "geometry": {
        "type": "Point",
        "coordinates": [
          73.05288730000001,
          33.596536900000004
        ]
      },
      "properties": {
        "id": 1414264851,
        "name": "Resturant",
        "amenity": "restaurant",
        "cuisine": "regional"
      }
    },
    {
      "type": "Feature",
      "geometry": {
        "type": "Point",
        "coordinates": [
          73.0505275,
          33.596438600000006
        ]
      },
      "properties": {
        "id": 1414264867,
        "name": "Resturants",
        "amenity": "restaurant",
        "wheelchair": "yes"
      }
    },
    {
      "type": "Feature",
      "geometry": {
        "type": "Point",
        "coordinates": [
          73.0493474,
          33.5952143
        ]
      },
      "properties": {
        "id": 1414324516,
        "name": "Kim Fah Chinese restaurant ",
        "amenity": "restaurant",
        "cuisine": "chinese"
      }
    },
    {
      "type": "Feature",
      "geometry": {
        "type": "Point",
        "coordinates": [
          73.08941270000001,
          33.5857502
        ]
      },
      "properties": {
        "id": 1420062785,
        "name": "Unnamed",
        "amenity": "fast_food",
        "cuisine": "fast_food"
      }
    },
    {
      "type": "Feature",
      "geometry": {
        "type": "Point",
        "coordinates": [
          73.1062163,
          33.5620544
        ]
      },
      "properties": {
        "id": 1420479742,
        "name": "Italian Pizza",
        "amenity": "fast_food",
        "cuisine": "pizza"
      }
    },
    {
      "type": "Feature",
      "geometry": {
        "type": "Point",
        "coordinates": [
          73.10665610000001,
          33.5624388
        ]
      },
      "properties": {
        "id": 1420479745,
        "name": "Hungry Bunny",
        "amenity": "fast_food",
        "cuisine": "burger"
      }
    },
    {
      "type": "Feature",
      "geometry": {
        "type": "Point",
        "coordinates": [
          66.9409318,
          24.8780223
        ]
      },
      "properties": {
        "id": 1428217503,
        "name": "College Canteen",
        "addr:city": "Karachi",
        "addr:country": "PK",
        "addr:postcode": "75020",
        "addr:province": "Sindh",
        "amenity": "fast_food"
      }
    },
    {
      "type": "Feature",
      "geometry": {
        "type": "Point",
        "coordinates": [
          73.05610340000001,
          33.594117600000004
        ]
      },
      "properties": {
        "id": 1429973743,
        "name": "KFC Saddar",
        "addr:city": "راولپنڈی",
        "addr:city:en": "Rawalpindi",
        "addr:city:fr": "Rawalpindi",
        "addr:city:pa": "ਰਾਵਲਪਿੰਡੀ",
        "addr:city:pnb": "راولپنڈی",
        "addr:city:ur": "راولپنڈی",
        "addr:housenumber": "KFC, Zarkoon Plaza",
        "addr:street": "Murree Road",
        "amenity": "fast_food",
        "drive_through": "no"
      }
    },
    {
      "type": "Feature",
      "geometry": {
        "type": "Point",
        "coordinates": [
          66.9552671,
          24.8860968
        ]
      },
      "properties": {
        "id": 1440050917,
        "name": "Nan Shop",
        "addr:city": "Karachi",
        "addr:country": "PK",
        "addr:postcode": "75020",
        "addr:province": "Sindh",
        "amenity": "restaurant"
      }
    },
    {
      "type": "Feature",
      "geometry": {
        "type": "Point",
        "coordinates": [
          66.9494521,
          24.880685300000003
        ]
      },
      "properties": {
        "id": 1440065071,
        "name": "Cafe",
        "addr:city": "Karachi",
        "addr:country": "PK",
        "addr:postcode": "75020",
        "addr:province": "Sindh",
        "amenity": "fast_food"
      }
    },
    {
      "type": "Feature",
      "geometry": {
        "type": "Point",
        "coordinates": [
          66.9562676,
          24.884707400000003
        ]
      },
      "properties": {
        "id": 1440070265,
        "name": "Cafe n Nan Shop",
        "addr:city": "Karachi",
        "addr:country": "PK",
        "addr:postcode": "75020",
        "addr:province": "Sindh",
        "amenity": "restaurant"
      }
    },
    {
      "type": "Feature",
      "geometry": {
        "type": "Point",
        "coordinates": [
          66.9408154,
          24.875487800000002
        ]
      },
      "properties": {
        "id": 1440076476,
        "name": "School Canteen",
        "addr:city": "Karachi",
        "addr:country": "PK",
        "addr:postcode": "75020",
        "addr:province": "Sindh",
        "amenity": "fast_food"
      }
    },
    {
      "type": "Feature",
      "geometry": {
        "type": "Point",
        "coordinates": [
          71.5051531,
          30.272271000000003
        ]
      },
      "properties": {
        "id": 1473033393,
        "name": "UFC",
        "addr:housename": "IMS",
        "addr:place": "IMD BZU",
        "amenity": "restaurant",
        "cuisine": "international",
        "opening_hours": "Mo-Su 07:00-23:00",
        "website": "https://www.bzu.edu.pk/"
      }
    },
    {
      "type": "Feature",
      "geometry": {
        "type": "Point",
        "coordinates": [
          71.5049353,
          30.271201500000004
        ]
      },
      "properties": {
        "id": 1473085345,
        "name": "Central Cafe",
        "amenity": "restaurant",
        "cuisine": "regional",
        "opening_hours": "Mo-Su 07:00-23:00",
        "source": "30.2704, 71.5051"
      }
    },
    {
      "type": "Feature",
      "geometry": {
        "type": "Point",
        "coordinates": [
          71.5033248,
          30.270902400000004
        ]
      },
      "properties": {
        "id": 1473135363,
        "name": "Bank Chowk Resturant",
        "amenity": "restaurant",
        "cuisine": "regional",
        "opening_hours": "Mo-Sa 08:00-16:00",
        "source": "30.2701, 71.5033"
      }
    },
    {
      "type": "Feature",
      "geometry": {
        "type": "Point",
        "coordinates": [
          74.365306,
          31.5316484
        ]
      },
      "properties": {
        "id": 1507149368,
        "name": "Unnamed",
        "amenity": "restaurant"
      }
    },
    {
      "type": "Feature",
      "geometry": {
        "type": "Point",
        "coordinates": [
          74.347735,
          31.507633600000002
        ]
      },
      "properties": {
        "id": 1534027490,
        "name": "Unnamed",
        "amenity": "fast_food",
        "shwarma": "Labnese"
      }
    },
    {
      "type": "Feature",
      "geometry": {
        "type": "Point",
        "coordinates": [
          74.2906808,
          31.519732200000004
        ]
      },
      "properties": {
        "id": 1557275970,
        "name": "مکڈونلڈز",
        "amenity": "fast_food",
        "brand": "مکڈونلڈز",
        "brand:ar": "مكدونالدز",
        "brand:de": "McDonald’s",
        "brand:en": "McDonald's",
        "brand:fa": "مکدونالدز",
        "brand:pnb": "میکڈونلڈز",
        "brand:ps": "مکډونالډز",
        "brand:ur": "مکڈونلڈز",
        "brand:wikidata": "Q38076",
        "brand:wikipedia": "ur:مکڈونلڈز",
        "brand:wikipedia:ar": "مكدونالدز",
        "brand:wikipedia:fa": "مکدونالدز",
        "brand:wikipedia:pnb": "میکڈونلڈز",
        "brand:wikipedia:ps": "مکډونالډز",
        "brand:wikipedia:ur": "مکڈونلڈز",
        "name:ar": "مكدونالدز",
        "name:de": "McDonald’s",
        "name:en": "McDonald's",
        "name:fa": "مکدونالدز",
        "name:pnb": "میکڈونلڈز",
        "name:ps": "مکډونالډز",
        "name:ur": "مکڈونلڈز"
      }
    },
    {
      "type": "Feature",
      "geometry": {
        "type": "Point",
        "coordinates": [
          74.2907459,
          31.520958900000004
        ]
      },
      "properties": {
        "id": 1558238060,
        "name": "Bundu khan",
        "amenity": "restaurant"
      }
    },
    {
      "type": "Feature",
      "geometry": {
        "type": "Point",
        "coordinates": [
          73.07672520000001,
          33.650221200000004
        ]
      },
      "properties": {
        "id": 1583592026,
        "name": "rawalpindi food street",
        "amenity": "fast_food",
        "cuisine": "chicken"
      }
    },
    {
      "type": "Feature",
      "geometry": {
        "type": "Point",
        "coordinates": [
          74.3478278,
          31.521296900000003
        ]
      },
      "properties": {
        "id": 1665866322,
        "name": "Unnamed",
        "amenity": "restaurant",
        "cuisine": "chinese"
      }
    },
    {
      "type": "Feature",
      "geometry": {
        "type": "Point",
        "coordinates": [
          68.36365210000001,
          25.3921634
        ]
      },
      "properties": {
        "id": 1671682270,
        "name": "Energy Bakery",
        "addr:city": "حیدرآباد",
        "addr:city:en": "Hyderabad",
        "addr:city:fr": "Hyderâbâd",
        "addr:city:pa": "ਹੈਦਰਾਬਾਦ",
        "addr:city:ur": "حیدرآباد",
        "addr:street": "Chandni Cinema Road",
        "amenity": "fast_food"
      }
    },
    {
      "type": "Feature",
      "geometry": {
        "type": "Point",
        "coordinates": [
          67.3580896,
          25.0068498
        ]
      },
      "properties": {
        "id": 1685605924,
        "name": "Makkah Resturants",
        "addr:city": "Karachi",
        "addr:street": "Super Highway",
        "amenity": "restaurant"
      }
    },
    {
      "type": "Feature",
      "geometry": {
        "type": "Point",
        "coordinates": [
          67.39224490000001,
          25.0255313
        ]
      },
      "properties": {
        "id": 1685606121,
        "name": "Mashallah Quaidabad Mianwali Hotel",
        "addr:city": "Karachi",
        "addr:street": "Super Highway",
        "amenity": "restaurant"
      }
    },
    {
      "type": "Feature",
      "geometry": {
        "type": "Point",
        "coordinates": [
          67.3694246,
          25.019707900000004
        ]
      },
      "properties": {
        "id": 1685606287,
        "name": "Sindh Islamia Hotel",
        "addr:city": "Karachi",
        "addr:street": "Super Highway",
        "amenity": "restaurant"
      }
    },
    {
      "type": "Feature",
      "geometry": {
        "type": "Point",
        "coordinates": [
          73.1254244,
          33.5505421
        ]
      },
      "properties": {
        "id": 1698010225,
        "name": "کینٹکی فرائیڈ چکن",
        "addr:city": "راولپنڈی",
        "addr:city:en": "Rawalpindi",
        "addr:city:fr": "Rawalpindi",
        "addr:city:pa": "ਰਾਵਲਪਿੰਡੀ",
        "addr:city:pnb": "راولپنڈی",
        "addr:city:ur": "راولپنڈی",
        "addr:housenumber": "Civic Center Phase 4",
        "addr:street": "Allama Iqbal Avenue",
        "amenity": "fast_food",
        "brand": "کینٹکی فرائیڈ چکن",
        "brand:ar": "دجاج كنتاكي",
        "brand:fa": "کی‌اف‌سی",
        "brand:ur": "کینٹکی فرائیڈ چکن",
        "brand:wikipedia": "ur:کینٹکی فرائیڈ چکن",
        "brand:wikipedia:ar": "دجاج كنتاكي",
        "brand:wikipedia:fa": "کی‌اف‌سی",
        "brand:wikipedia:ur": "کینٹکی فرائیڈ چکن",
        "cuisine": "burger",
        "name:ar": "دجاج كنتاكي",
        "name:en": "KFC",
        "name:fa": "کی‌اف‌سی",
        "name:ur": "کینٹکی فرائیڈ چکن"
      }
    },
    {
      "type": "Feature",
      "geometry": {
        "type": "Point",
        "coordinates": [
          73.13630830000001,
          33.5574269
        ]
      },
      "properties": {
        "id": 1698026541,
        "name": "Oxygen",
        "amenity": "fast_food",
        "cuisine": "pizza"
      }
    },
    {
      "type": "Feature",
      "geometry": {
        "type": "Point",
        "coordinates": [
          73.1364054,
          33.5573105
        ]
      },
      "properties": {
        "id": 1698027884,
        "name": "ڈنکن ڈونٹس",
        "amenity": "fast_food",
        "brand": "ڈنکن ڈونٹس",
        "brand:ar": "دانكن دونتس",
        "brand:ur": "ڈنکن ڈونٹس",
        "brand:wikidata": "Q847743",
        "brand:wikipedia": "ar:دانكن دونتس",
        "cuisine": "donut",
        "name:ar": "دانكن دونتس",
        "name:en": "Dunkin' Donuts",
        "name:ur": "ڈنکن ڈونٹس"
      }
    },
    {
      "type": "Feature",
      "geometry": {
        "type": "Point",
        "coordinates": [
          73.1387612,
          33.5520908
        ]
      },
      "properties": {
        "id": 1698042260,
        "name": "Quetta Moon Cafe",
        "amenity": "cafe",
        "indoor_seating": "no",
        "opening_hours": "24/7",
        "outdoor_seating": "yes"
      }
    },
    {
      "type": "Feature",
      "geometry": {
        "type": "Point",
        "coordinates": [
          73.0634842,
          33.7132176
        ]
      },
      "properties": {
        "id": 1732632465,
        "name": "Savour Foods",
        "addr:street": "AKM Fazul Haq Road",
        "amenity": "restaurant",
        "opening_hours": "24/7"
      }
    },
    {
      "type": "Feature",
      "geometry": {
        "type": "Point",
        "coordinates": [
          67.0763513,
          24.903492200000002
        ]
      },
      "properties": {
        "id": 1777828050,
        "name": "Unnamed",
        "addr:city": "Karachi",
        "addr:street": "University Road",
        "amenity": "cafe"
      }
    },
    {
      "type": "Feature",
      "geometry": {
        "type": "Point",
        "coordinates": [
          73.07093970000001,
          33.652985
        ]
      },
      "properties": {
        "id": 1793986907,
        "name": "Al madni resturant",
        "amenity": "restaurant"
      }
    },
    {
      "type": "Feature",
      "geometry": {
        "type": "Point",
        "coordinates": [
          73.07074130000001,
          33.6532618
        ]
      },
      "properties": {
        "id": 1793988714,
        "name": "Daubai food & resturant",
        "amenity": "restaurant"
      }
    },
    {
      "type": "Feature",
      "geometry": {
        "type": "Point",
        "coordinates": [
          73.0703228,
          33.653757500000005
        ]
      },
      "properties": {
        "id": 1793994418,
        "name": "zum zum resturant",
        "amenity": "restaurant"
      }
    },
    {
      "type": "Feature",
      "geometry": {
        "type": "Point",
        "coordinates": [
          73.06996880000001,
          33.654302200000004
        ]
      },
      "properties": {
        "id": 1793997456,
        "name": "tabaraak resturant",
        "amenity": "restaurant"
      }
    },
    {
      "type": "Feature",
      "geometry": {
        "type": "Point",
        "coordinates": [
          73.0705267,
          33.654422800000006
        ]
      },
      "properties": {
        "id": 1794005044,
        "name": "Al-madina resturant",
        "amenity": "restaurant"
      }
    },
    {
      "type": "Feature",
      "geometry": {
        "type": "Point",
        "coordinates": [
          73.07076810000001,
          33.654110200000005
        ]
      },
      "properties": {
        "id": 1794007477,
        "name": "saman PCO and cold drinks",
        "amenity": "fast_food"
      }
    },
    {
      "type": "Feature",
      "geometry": {
        "type": "Point",
        "coordinates": [
          67.0335766,
          24.827131800000004
        ]
      },
      "properties": {
        "id": 1847110776,
        "name": "Jeddah Foods",
        "addr:city": "Karachi",
        "addr:country": "PK",
        "addr:housenumber": "Block 5",
        "addr:place": "Clifton Block 5",
        "addr:province": "Sindh",
        "addr:street": "Clifton",
        "addr:suburb": "Clifton",
        "amenity": "fast_food"
      }
    },
    {
      "type": "Feature",
      "geometry": {
        "type": "Point",
        "coordinates": [
          67.0332106,
          24.827242000000002
        ]
      },
      "properties": {
        "id": 1847111013,
        "name": "Tipu Burger",
        "addr:city": "Karachi",
        "addr:country": "PK",
        "addr:housenumber": "Block 5",
        "addr:place": "Clifton Block 5",
        "addr:province": "Sindh",
        "addr:street": "Clifton",
        "addr:suburb": "Clifton",
        "amenity": "fast_food"
      }
    },
    {
      "type": "Feature",
      "geometry": {
        "type": "Point",
        "coordinates": [
          71.44311090000001,
          30.195993100000003
        ]
      },
      "properties": {
        "id": 1921952404,
        "name": "Adamji Sajji",
        "amenity": "restaurant"
      }
    },
    {
      "type": "Feature",
      "geometry": {
        "type": "Point",
        "coordinates": [
          71.440701,
          30.186846000000003
        ]
      },
      "properties": {
        "id": 1921952407,
        "name": "Ahmar Nihari",
        "amenity": "restaurant"
      }
    },
    {
      "type": "Feature",
      "geometry": {
        "type": "Point",
        "coordinates": [
          71.47790760000001,
          30.227207500000002
        ]
      },
      "properties": {
        "id": 1921952413,
        "name": "Al Ghazali Biryani",
        "amenity": "restaurant"
      }
    },
    {
      "type": "Feature",
      "geometry": {
        "type": "Point",
        "coordinates": [
          71.43924200000001,
          30.185795000000002
        ]
      },
      "properties": {
        "id": 1921952421,
        "name": "Ali Chicken Roast",
        "amenity": "restaurant"
      }
    },
    {
      "type": "Feature",
      "geometry": {
        "type": "Point",
        "coordinates": [
          71.5059823,
          30.256515000000004
        ]
      },
      "properties": {
        "id": 1921952422,
        "name": "Ali Hall Canteen",
        "amenity": "restaurant",
        "opening_hours": "\"this canteen is contractor operated. most of time closed\""
      }
    },
    {
      "type": "Feature",
      "geometry": {
        "type": "Point",
        "coordinates": [
          71.44074400000001,
          30.186996000000004
        ]
      },
      "properties": {
        "id": 1921952449,
        "name": "Azeem Soup",
        "amenity": "restaurant"
      }
    },
    {
      "type": "Feature",
      "geometry": {
        "type": "Point",
        "coordinates": [
          71.4369087,
          30.185102800000003
        ]
      },
      "properties": {
        "id": 1921952503,
        "name": "Bell and Tell",
        "amenity": "restaurant"
      }
    },
    {
      "type": "Feature",
      "geometry": {
        "type": "Point",
        "coordinates": [
          71.445873,
          30.192382000000002
        ]
      },
      "properties": {
        "id": 1921952521,
        "name": "Bundu Khan",
        "addr:city": "ملتان",
        "addr:street": "Abdali Rd",
        "amenity": "restaurant"
      }
    },
    {
      "type": "Feature",
      "geometry": {
        "type": "Point",
        "coordinates": [
          71.51310000000001,
          30.202017
        ]
      },
      "properties": {
        "id": 1921952542,
        "name": "Chaat Cafe",
        "amenity": "restaurant"
      }
    },
    {
      "type": "Feature",
      "geometry": {
        "type": "Point",
        "coordinates": [
          71.480141,
          30.197511000000002
        ]
      },
      "properties": {
        "id": 1921952546,
        "name": "Chaman Ice Cream Parlor",
        "amenity": "restaurant"
      }
    },
    {
      "type": "Feature",
      "geometry": {
        "type": "Point",
        "coordinates": [
          71.44364390000001,
          30.1915936
        ]
      },
      "properties": {
        "id": 1921952547,
        "name": "Chaman Ice Cream",
        "amenity": "restaurant"
      }
    },
    {
      "type": "Feature",
      "geometry": {
        "type": "Point",
        "coordinates": [
          71.475785,
          30.227659000000003
        ]
      },
      "properties": {
        "id": 1921952552,
        "name": "Choice",
        "addr:city": "ملتان",
        "amenity": "fast_food",
        "shop": "food"
      }
    },
    {
      "type": "Feature",
      "geometry": {
        "type": "Point",
        "coordinates": [
          71.44625900000001,
          30.178156
        ]
      },
      "properties": {
        "id": 1921952677,
        "name": "Dahi Bhalla Shop",
        "amenity": "restaurant"
      }
    },
    {
      "type": "Feature",
      "geometry": {
        "type": "Point",
        "coordinates": [
          71.44289060000001,
          30.195928700000003
        ]
      },
      "properties": {
        "id": 1921952698,
        "name": "Darbari Sajji",
        "amenity": "restaurant"
      }
    },
    {
      "type": "Feature",
      "geometry": {
        "type": "Point",
        "coordinates": [
          71.44441400000001,
          30.187061000000003
        ]
      },
      "properties": {
        "id": 1921952715,
        "name": "دارالکباب",
        "amenity": "restaurant",
        "name:en": "Darul Kabab",
        "name:ur": "دارالکباب"
      }
    },
    {
      "type": "Feature",
      "geometry": {
        "type": "Point",
        "coordinates": [
          71.47866,
          30.197875000000003
        ]
      },
      "properties": {
        "id": 1921952743,
        "name": "Daulat Gate Ice Cream",
        "amenity": "restaurant"
      }
    },
    {
      "type": "Feature",
      "geometry": {
        "type": "Point",
        "coordinates": [
          71.43859900000001,
          30.185666
        ]
      },
      "properties": {
        "id": 1921952806,
        "name": "Dilmeer Pera House",
        "amenity": "restaurant"
      }
    },
    {
      "type": "Feature",
      "geometry": {
        "type": "Point",
        "coordinates": [
          71.46615000000001,
          30.197039000000004
        ]
      },
      "properties": {
        "id": 1921952846,
        "name": "ڈوم اینو پیزا",
        "amenity": "restaurant",
        "cuisine": "pizza",
        "name:en": "DomEno Pizza",
        "name:ur": "ڈوم اینو پیزا"
      }
    },
    {
      "type": "Feature",
      "geometry": {
        "type": "Point",
        "coordinates": [
          71.45162300000001,
          30.200386
        ]
      },
      "properties": {
        "id": 1921952959,
        "name": "Food Festival",
        "amenity": "restaurant"
      }
    },
    {
      "type": "Feature",
      "geometry": {
        "type": "Point",
        "coordinates": [
          71.4790408,
          30.229626100000004
        ]
      },
      "properties": {
        "id": 1921952961,
        "name": "Food Fstival",
        "addr:city": "ملتان",
        "addr:street": "Bosan Rd",
        "amenity": "restaurant",
        "cuisine": "deli"
      }
    },
    {
      "type": "Feature",
      "geometry": {
        "type": "Point",
        "coordinates": [
          71.441152,
          30.186803
        ]
      },
      "properties": {
        "id": 1921953427,
        "name": "Haidery Cone Ice cream",
        "amenity": "restaurant"
      }
    },
    {
      "type": "Feature",
      "geometry": {
        "type": "Point",
        "coordinates": [
          71.438749,
          30.185730000000003
        ]
      },
      "properties": {
        "id": 1921953593,
        "name": "Ice Cream and Faluda House",
        "amenity": "restaurant"
      }
    },
    {
      "type": "Feature",
      "geometry": {
        "type": "Point",
        "coordinates": [
          71.4432409,
          30.191580200000004
        ]
      },
      "properties": {
        "id": 1921953631,
        "name": "Irum Soup and Ice Cream",
        "amenity": "restaurant"
      }
    },
    {
      "type": "Feature",
      "geometry": {
        "type": "Point",
        "coordinates": [
          71.440787,
          30.186996000000004
        ]
      },
      "properties": {
        "id": 1921953632,
        "name": "Irum Soup",
        "amenity": "restaurant"
      }
    },
    {
      "type": "Feature",
      "geometry": {
        "type": "Point",
        "coordinates": [
          71.489496,
          30.209913000000004
        ]
      },
      "properties": {
        "id": 1921953633,
        "name": "Ishfaq Pan Shop",
        "amenity": "restaurant"
      }
    },
    {
      "type": "Feature",
      "geometry": {
        "type": "Point",
        "coordinates": [
          71.44020800000001,
          30.186310000000002
        ]
      },
      "properties": {
        "id": 1921953657,
        "name": "Italian Pizza",
        "amenity": "restaurant"
      }
    },
    {
      "type": "Feature",
      "geometry": {
        "type": "Point",
        "coordinates": [
          71.442096,
          30.195451000000002
        ]
      },
      "properties": {
        "id": 1921953732,
        "name": "KFC",
        "addr:city": "ملتان",
        "alt_name": "Kentucky Fried Chicken",
        "alt_name:en": "Kentucky Fried Chicken",
        "alt_name:hi": "केंटुकी फ्राइड चिकन",
        "alt_name:pa": "ਕੈਂਟੁਕੀ ਫ੍ਰਾਈਡ ਚਿਕਨ",
        "alt_name:pnb": "کینٹکی فرائیڈ چکن",
        "alt_name:ur": "کینٹکی فرائیڈ چکن",
        "amenity": "fast_food",
        "brand": "KFC",
        "brand:ar": "دجاج كنتاكي",
        "brand:en": "KFC",
        "brand:fa": "کی‌اف‌سی",
        "brand:hi": "केएफसी",
        "brand:pa": "ਕੇਐਫਸੀ",
        "brand:pnb": "کے ایف سی",
        "brand:ur": "کے ایف سی",
        "brand:wikidata": "Q524757",
        "brand:wikipedia": "ur:کینٹکی فرائیڈ چکن",
        "brand:wikipedia:ar": "دجاج كنتاكي",
        "brand:wikipedia:fa": "کی‌اف‌سی",
        "brand:wikipedia:ur": "کینٹکی فرائیڈ چکن",
        "cuisine": "chicken",
        "name:ar": "دجاج كنتاكي",
        "name:en": "KFC",
        "name:fa": "کی‌اف‌سی",
        "name:hi": "केएफसी",
        "name:pa": "ਕੇਐਫਸੀ",
        "name:pnb": "کے ایف سی",
        "name:ur": "کے ایف سی",
        "takeaway": "yes"
      }
    },
    {
      "type": "Feature",
      "geometry": {
        "type": "Point",
        "coordinates": [
          71.51458000000001,
          30.202188000000003
        ]
      },
      "properties": {
        "id": 1921953744,
        "name": "Karachi Icecream Bar",
        "amenity": "restaurant"
      }
    },
    {
      "type": "Feature",
      "geometry": {
        "type": "Point",
        "coordinates": [
          71.441367,
          30.191009
        ]
      },
      "properties": {
        "id": 1921953761,
        "name": "LFC Food Mela",
        "amenity": "restaurant"
      }
    },
    {
      "type": "Feature",
      "geometry": {
        "type": "Point",
        "coordinates": [
          71.43962900000001,
          30.185902000000002
        ]
      },
      "properties": {
        "id": 1921953768,
        "name": "Lasani Chicken Roast",
        "amenity": "restaurant"
      }
    },
    {
      "type": "Feature",
      "geometry": {
        "type": "Point",
        "coordinates": [
          71.47974110000001,
          30.230877000000003
        ]
      },
      "properties": {
        "id": 1921953771,
        "name": "Lasani Foods",
        "amenity": "restaurant"
      }
    },
    {
      "type": "Feature",
      "geometry": {
        "type": "Point",
        "coordinates": [
          71.46248100000001,
          30.208004000000003
        ]
      },
      "properties": {
        "id": 1921953772,
        "name": "Lasani Fried Chicken",
        "amenity": "restaurant"
      }
    },
    {
      "type": "Feature",
      "geometry": {
        "type": "Point",
        "coordinates": [
          71.436346,
          30.185666
        ]
      },
      "properties": {
        "id": 1921953773,
        "name": "Lasani Rastaurant",
        "amenity": "restaurant"
      }
    },
    {
      "type": "Feature",
      "geometry": {
        "type": "Point",
        "coordinates": [
          71.446195,
          30.203669
        ]
      },
      "properties": {
        "id": 1921953774,
        "name": "Lasani Resturant",
        "amenity": "restaurant"
      }
    },
    {
      "type": "Feature",
      "geometry": {
        "type": "Point",
        "coordinates": [
          71.487243,
          30.210021
        ]
      },
      "properties": {
        "id": 1921953776,
        "name": "Lassani Gardens Charga Brost",
        "amenity": "restaurant"
      }
    },
    {
      "type": "Feature",
      "geometry": {
        "type": "Point",
        "coordinates": [
          71.47106400000001,
          30.216093000000004
        ]
      },
      "properties": {
        "id": 1921953872,
        "name": "MUX - Lounge And  Restaurant",
        "amenity": "restaurant"
      }
    },
    {
      "type": "Feature",
      "geometry": {
        "type": "Point",
        "coordinates": [
          71.449049,
          30.187941000000002
        ]
      },
      "properties": {
        "id": 1921953999,
        "name": "Mian Ji Restaurant",
        "amenity": "restaurant"
      }
    },
    {
      "type": "Feature",
      "geometry": {
        "type": "Point",
        "coordinates": [
          71.481063,
          30.172491000000004
        ]
      },
      "properties": {
        "id": 1921954013,
        "name": "Mr. Burger",
        "amenity": "restaurant"
      }
    },
    {
      "type": "Feature",
      "geometry": {
        "type": "Point",
        "coordinates": [
          71.48842300000001,
          30.210149
        ]
      },
      "properties": {
        "id": 1921954038,
        "name": "Naqshband Bakers",
        "amenity": "restaurant"
      }
    },
    {
      "type": "Feature",
      "geometry": {
        "type": "Point",
        "coordinates": [
          71.47003400000001,
          30.199442
        ]
      },
      "properties": {
        "id": 1921954051,
        "name": "نوید بریانی ہاؤس",
        "addr:city": "ملتان",
        "addr:street": "شہید یونس روڈ",
        "amenity": "restaurant",
        "name:en": "Naveed Biryani House",
        "name:ur": "نوید بریانی ہاؤس"
      }
    },
    {
      "type": "Feature",
      "geometry": {
        "type": "Point",
        "coordinates": [
          71.44409200000001,
          30.205343000000003
        ]
      },
      "properties": {
        "id": 1921954061,
        "name": "Nishter Hostels Canteen",
        "addr:city": "ملتان",
        "amenity": "fast_food"
      }
    },
    {
      "type": "Feature",
      "geometry": {
        "type": "Point",
        "coordinates": [
          71.44123800000001,
          30.187769000000003
        ]
      },
      "properties": {
        "id": 1921954091,
        "name": "Papa Gino's",
        "amenity": "restaurant"
      }
    },
    {
      "type": "Feature",
      "geometry": {
        "type": "Point",
        "coordinates": [
          71.47563500000001,
          30.22753
        ]
      },
      "properties": {
        "id": 1921954092,
        "name": "Pappu Tikka Kebab Shop",
        "amenity": "restaurant"
      }
    },
    {
      "type": "Feature",
      "geometry": {
        "type": "Point",
        "coordinates": [
          71.44087300000001,
          30.186481000000004
        ]
      },
      "properties": {
        "id": 1921954095,
        "name": "Pathway Tikka House",
        "amenity": "restaurant"
      }
    },
    {
      "type": "Feature",
      "geometry": {
        "type": "Point",
        "coordinates": [
          71.43671,
          30.206630000000004
        ]
      },
      "properties": {
        "id": 1921954106,
        "name": "Pizza Muxx",
        "amenity": "restaurant"
      }
    },
    {
      "type": "Feature",
      "geometry": {
        "type": "Point",
        "coordinates": [
          71.43844800000001,
          30.185623000000003
        ]
      },
      "properties": {
        "id": 1921954107,
        "name": "Pizza Track",
        "amenity": "restaurant"
      }
    },
    {
      "type": "Feature",
      "geometry": {
        "type": "Point",
        "coordinates": [
          71.45812500000001,
          30.204420000000002
        ]
      },
      "properties": {
        "id": 1921954108,
        "name": "Pizza Track",
        "amenity": "restaurant"
      }
    },
    {
      "type": "Feature",
      "geometry": {
        "type": "Point",
        "coordinates": [
          71.511812,
          30.202575000000003
        ]
      },
      "properties": {
        "id": 1921954130,
        "name": "Qureshi Tikka House",
        "amenity": "restaurant"
      }
    },
    {
      "type": "Feature",
      "geometry": {
        "type": "Point",
        "coordinates": [
          71.475441,
          30.227487000000004
        ]
      },
      "properties": {
        "id": 1921954159,
        "name": "Rasheed Drink Corner",
        "addr:city": "ملتان",
        "amenity": "cafe"
      }
    },
    {
      "type": "Feature",
      "geometry": {
        "type": "Point",
        "coordinates": [
          71.507478,
          30.186954000000004
        ]
      },
      "properties": {
        "id": 1921954215,
        "name": "Samosa Corner",
        "addr:city": "ملتان",
        "amenity": "fast_food"
      }
    },
    {
      "type": "Feature",
      "geometry": {
        "type": "Point",
        "coordinates": [
          71.447203,
          30.203304000000003
        ]
      },
      "properties": {
        "id": 1921954240,
        "name": "شبیر ہوٹل",
        "amenity": "restaurant",
        "name:en": "Shabir Hotel",
        "name:ur": "شبیر ہوٹل"
      }
    },
    {
      "type": "Feature",
      "geometry": {
        "type": "Point",
        "coordinates": [
          71.44203200000001,
          30.196052
        ]
      },
      "properties": {
        "id": 1921954270,
        "name": "Shangrilla Barbeque",
        "amenity": "restaurant"
      }
    },
    {
      "type": "Feature",
      "geometry": {
        "type": "Point",
        "coordinates": [
          71.471901,
          30.210578
        ]
      },
      "properties": {
        "id": 1921954272,
        "name": "Shangrilla Cuisine",
        "amenity": "restaurant"
      }
    },
    {
      "type": "Feature",
      "geometry": {
        "type": "Point",
        "coordinates": [
          71.48087000000001,
          30.172427000000003
        ]
      },
      "properties": {
        "id": 1921954273,
        "name": "Shangrilla",
        "addr:city": "ملتان",
        "addr:street": "Vehari Rd",
        "amenity": "restaurant",
        "cuisine": "deli"
      }
    },
    {
      "type": "Feature",
      "geometry": {
        "type": "Point",
        "coordinates": [
          71.44098000000001,
          30.195558000000002
        ]
      },
      "properties": {
        "id": 1921954322,
        "name": "Subway",
        "amenity": "fast_food",
        "brand": "Subway",
        "brand:ar": "صبوي",
        "brand:ur": "سب وے",
        "brand:website": "https://www.subway.com",
        "brand:wikidata": "Q244457",
        "brand:wikipedia": "ar:صب واي",
        "cuisine": "sandwich",
        "name:ar": "صبوي",
        "name:de": "Subway",
        "name:en": "Subway",
        "name:es": "Subway",
        "name:ur": "سب وے",
        "takeaway": "yes"
      }
    },
    {
      "type": "Feature",
      "geometry": {
        "type": "Point",
        "coordinates": [
          71.46894,
          30.228581000000002
        ]
      },
      "properties": {
        "id": 1921954327,
        "name": "Sunny Bakers",
        "amenity": "restaurant"
      }
    },
    {
      "type": "Feature",
      "geometry": {
        "type": "Point",
        "coordinates": [
          71.454391,
          30.194035000000003
        ]
      },
      "properties": {
        "id": 1921954342,
        "name": "Taj Hotel",
        "addr:city": "ملتان",
        "addr:street": "Abdali Rd",
        "amenity": "restaurant"
      }
    },
    {
      "type": "Feature",
      "geometry": {
        "type": "Point",
        "coordinates": [
          71.454284,
          30.21045
        ]
      },
      "properties": {
        "id": 1921954349,
        "name": "Tandoor",
        "amenity": "restaurant"
      }
    },
    {
      "type": "Feature",
      "geometry": {
        "type": "Point",
        "coordinates": [
          71.4972802,
          30.209841300000004
        ]
      },
      "properties": {
        "id": 1921954353,
        "name": "Tasty Plus",
        "addr:city": "ملتان",
        "addr:street": "Khanewal Road",
        "amenity": "fast_food"
      }
    },
    {
      "type": "Feature",
      "geometry": {
        "type": "Point",
        "coordinates": [
          71.475334,
          30.227273000000004
        ]
      },
      "properties": {
        "id": 1921954519,
        "name": "Wali Foods",
        "amenity": "restaurant"
      }
    },
    {
      "type": "Feature",
      "geometry": {
        "type": "Point",
        "coordinates": [
          71.4454647,
          30.192588800000003
        ]
      },
      "properties": {
        "id": 1921954614,
        "name": "Zanzibar Restaurant",
        "amenity": "restaurant"
      }
    },
    {
      "type": "Feature",
      "geometry": {
        "type": "Point",
        "coordinates": [
          71.67212420000001,
          29.390718300000003
        ]
      },
      "properties": {
        "id": 1925507736,
        "name": "Al Maida",
        "addr:city": "BAHAWALPUR",
        "addr:country": "PK",
        "addr:district": "BAHAWALPUR",
        "addr:region": "PUNJAB",
        "amenity": "fast_food"
      }
    },
    {
      "type": "Feature",
      "geometry": {
        "type": "Point",
        "coordinates": [
          71.687379,
          29.387870000000003
        ]
      },
      "properties": {
        "id": 1925507782,
        "name": "Baba Nasir Chawal",
        "addr:city": "BAHAWALPUR",
        "addr:country": "PK",
        "addr:district": "BAHAWALPUR",
        "addr:region": "PUNJAB",
        "amenity": "fast_food"
      }
    },
    {
      "type": "Feature",
      "geometry": {
        "type": "Point",
        "coordinates": [
          71.6646207,
          29.3945888
        ]
      },
      "properties": {
        "id": 1925507841,
        "name": "Lahori Chicken Shawarma",
        "addr:city": "BAHAWALPUR",
        "addr:country": "PK",
        "addr:district": "BAHAWALPUR",
        "addr:region": "PUNJAB",
        "addr:street": "Gulzar Sadiq Rd",
        "amenity": "fast_food"
      }
    },
    {
      "type": "Feature",
      "geometry": {
        "type": "Point",
        "coordinates": [
          71.68227780000001,
          29.391115700000004
        ]
      },
      "properties": {
        "id": 1925508030,
        "name": "Khans",
        "addr:city": "Bahawalpur",
        "addr:country": "PK",
        "addr:district": "BAHAWALPUR",
        "addr:region": "PUNJAB",
        "addr:street": "Circular Rd",
        "amenity": "restaurant"
      }
    },
    {
      "type": "Feature",
      "geometry": {
        "type": "Point",
        "coordinates": [
          71.676049,
          29.382162
        ]
      },
      "properties": {
        "id": 1925509574,
        "name": "Unnamed",
        "addr:city": "BAHAWALPUR",
        "addr:country": "PK",
        "addr:district": "BAHAWALPUR",
        "addr:region": "PUNJAB",
        "amenity": "cafe"
      }
    },
    {
      "type": "Feature",
      "geometry": {
        "type": "Point",
        "coordinates": [
          66.9953222,
          24.842447500000002
        ]
      },
      "properties": {
        "id": 1927188246,
        "name": "Seafront BBQ",
        "addr:city": "Karachi",
        "addr:country": "PK",
        "addr:housenumber": "Lalazar",
        "addr:postcode": "75020",
        "addr:province": "Sindh",
        "addr:street": "Road Number 4",
        "amenity": "restaurant"
      }
    },
    {
      "type": "Feature",
      "geometry": {
        "type": "Point",
        "coordinates": [
          73.0772661,
          33.641944900000006
        ]
      },
      "properties": {
        "id": 2027815103,
        "name": "Allah Din Restaurant & Fast Food",
        "addr:city": "راولپنڈی",
        "addr:city:en": "Rawalpindi",
        "addr:city:fr": "Rawalpindi",
        "addr:city:pa": "ਰਾਵਲਪਿੰਡੀ",
        "addr:city:pnb": "راولپنڈی",
        "addr:city:ur": "راولپنڈی",
        "addr:street": "6th Road",
        "amenity": "fast_food"
      }
    },
    {
      "type": "Feature",
      "geometry": {
        "type": "Point",
        "coordinates": [
          72.669385,
          32.9399607
        ]
      },
      "properties": {
        "id": 2090836724,
        "name": "Sheharyar Restuarant",
        "amenity": "restaurant"
      }
    },
    {
      "type": "Feature",
      "geometry": {
        "type": "Point",
        "coordinates": [
          72.5742953,
          32.9440845
        ]
      },
      "properties": {
        "id": 2090836726,
        "name": "Food Valley",
        "amenity": "restaurant"
      }
    },
    {
      "type": "Feature",
      "geometry": {
        "type": "Point",
        "coordinates": [
          72.5037532,
          32.9567968
        ]
      },
      "properties": {
        "id": 2090854702,
        "name": "Unnamed",
        "amenity": "fast_food"
      }
    },
    {
      "type": "Feature",
      "geometry": {
        "type": "Point",
        "coordinates": [
          71.7845047,
          35.379435
        ]
      },
      "properties": {
        "id": 2092856970,
        "name": "Unnamed",
        "amenity": "restaurant"
      }
    },
    {
      "type": "Feature",
      "geometry": {
        "type": "Point",
        "coordinates": [
          73.067953,
          33.744315
        ]
      },
      "properties": {
        "id": 2175180410,
        "name": "Des Pardes",
        "addr:city": "اسلام آباد",
        "addr:city:ar": "إسلام آباد",
        "addr:city:en": "Islamabad",
        "addr:city:ks": "اِسلام آبادٖ",
        "addr:city:pnb": "اسلام آباد",
        "addr:city:ps": "اسلام آباد",
        "addr:city:sd": "اسلام آباد",
        "addr:city:ur": "اسلام آباد",
        "addr:province": "Punjab",
        "amenity": "restaurant",
        "cuisine": "regional",
        "drive_in": "no",
        "internet_access:fee": "no",
        "microbrewery": "no",
        "outdoor_seating": "yes",
        "smoking": "separated",
        "takeaway": "yes",
        "wheelchair": "yes"
      }
    },
    {
      "type": "Feature",
      "geometry": {
        "type": "Point",
        "coordinates": [
          73.03033420000001,
          33.692258700000004
        ]
      },
      "properties": {
        "id": 2191206003,
        "name": "Tapas",
        "addr:city": "اسلام آباد",
        "addr:city:ar": "إسلام آباد",
        "addr:city:en": "Islamabad",
        "addr:city:ks": "اِسلام آبادٖ",
        "addr:city:pnb": "اسلام آباد",
        "addr:city:ps": "اسلام آباد",
        "addr:city:sd": "اسلام آباد",
        "addr:city:ur": "اسلام آباد",
        "addr:street": "Front of Gali 5",
        "amenity": "fast_food",
        "source": "Local Knowledge"
      }
    },
    {
      "type": "Feature",
      "geometry": {
        "type": "Point",
        "coordinates": [
          72.98850060000001,
          33.6453958
        ]
      },
      "properties": {
        "id": 2192126529,
        "name": "Faculty Lounge",
        "amenity": "cafe"
      }
    },
    {
      "type": "Feature",
      "geometry": {
        "type": "Point",
        "coordinates": [
          72.99003130000001,
          33.646422
        ]
      },
      "properties": {
        "id": 2192200538,
        "name": "Unnamed",
        "amenity": "cafe"
      }
    },
    {
      "type": "Feature",
      "geometry": {
        "type": "Point",
        "coordinates": [
          74.20792750000001,
          32.1301301
        ]
      },
      "properties": {
        "id": 2192558440,
        "name": "Irshad Super Store",
        "amenity": "cafe"
      }
    },
    {
      "type": "Feature",
      "geometry": {
        "type": "Point",
        "coordinates": [
          74.2078632,
          32.130053000000004
        ]
      },
      "properties": {
        "id": 2192574284,
        "name": "Unnamed",
        "amenity": "restaurant",
        "tourism": "hotel"
      }
    },
    {
      "type": "Feature",
      "geometry": {
        "type": "Point",
        "coordinates": [
          74.20780210000001,
          32.129119100000004
        ]
      },
      "properties": {
        "id": 2192629816,
        "name": "Unnamed",
        "amenity": "restaurant"
      }
    },
    {
      "type": "Feature",
      "geometry": {
        "type": "Point",
        "coordinates": [
          72.98800650000001,
          33.6430737
        ]
      },
      "properties": {
        "id": 2198384150,
        "name": "Unnamed",
        "amenity": "cafe"
      }
    },
    {
      "type": "Feature",
      "geometry": {
        "type": "Point",
        "coordinates": [
          72.98826960000001,
          33.6430227
        ]
      },
      "properties": {
        "id": 2200204230,
        "name": "Concordia 2 Cafe",
        "amenity": "cafe",
        "cuisine": "coffee_shop",
        "opening_hours": "Mo-Su 10:00-22:00"
      }
    },
    {
      "type": "Feature",
      "geometry": {
        "type": "Point",
        "coordinates": [
          73.09903000000001,
          33.5395923
        ]
      },
      "properties": {
        "id": 2209538064,
        "name": "Unnamed",
        "amenity": "fast_food"
      }
    },
    {
      "type": "Feature",
      "geometry": {
        "type": "Point",
        "coordinates": [
          73.7190152,
          33.1479246
        ]
      },
      "properties": {
        "id": 2242407547,
        "name": "Millat restuarant",
        "amenity": "restaurant"
      }
    },
    {
      "type": "Feature",
      "geometry": {
        "type": "Point",
        "coordinates": [
          73.75398870000001,
          33.152397500000006
        ]
      },
      "properties": {
        "id": 2242414786,
        "name": "Amin kebab house",
        "amenity": "restaurant"
      }
    },
    {
      "type": "Feature",
      "geometry": {
        "type": "Point",
        "coordinates": [
          73.65182610000001,
          33.171871
        ]
      },
      "properties": {
        "id": 2242454372,
        "name": "View resort",
        "amenity": "restaurant"
      }
    },
    {
      "type": "Feature",
      "geometry": {
        "type": "Point",
        "coordinates": [
          73.6240856,
          33.122419900000004
        ]
      },
      "properties": {
        "id": 2242464532,
        "name": "KFC Mangla",
        "amenity": "restaurant",
        "cuisine": "burger",
        "diet:halal": "yes",
        "name:en": "KFC"
      }
    },
    {
      "type": "Feature",
      "geometry": {
        "type": "Point",
        "coordinates": [
          73.0748216,
          33.5849101
        ]
      },
      "properties": {
        "id": 2242719149,
        "name": "Diva",
        "amenity": "restaurant"
      }
    },
    {
      "type": "Feature",
      "geometry": {
        "type": "Point",
        "coordinates": [
          73.73517570000001,
          33.148757700000004
        ]
      },
      "properties": {
        "id": 2242753178,
        "name": "K&N Chicken",
        "amenity": "restaurant"
      }
    },
    {
      "type": "Feature",
      "geometry": {
        "type": "Point",
        "coordinates": [
          73.0730755,
          33.688351000000004
        ]
      },
      "properties": {
        "id": 2247180648,
        "name": "کیفے",
        "amenity": "cafe",
        "name:ar": "مقهى",
        "name:en": "Cafe",
        "name:ur": "کیفے"
      }
    },
    {
      "type": "Feature",
      "geometry": {
        "type": "Point",
        "coordinates": [
          73.126665,
          33.7100317
        ]
      },
      "properties": {
        "id": 2247223740,
        "name": "Sailing club",
        "amenity": "cafe"
      }
    },
    {
      "type": "Feature",
      "geometry": {
        "type": "Point",
        "coordinates": [
          73.06061030000001,
          33.71182820000001
        ]
      },
      "properties": {
        "id": 2351617540,
        "name": "سب وے",
        "addr:city": "اسلام آباد",
        "addr:city:ar": "إسلام آباد",
        "addr:city:ks": "اِسلام آبادٖ",
        "addr:city:pnb": "اسلام آباد",
        "addr:city:ps": "اسلام آباد",
        "addr:city:sd": "اسلام آباد",
        "addr:city:ur": "اسلام آباد",
        "addr:street": "Jinnah Avenue",
        "amenity": "fast_food",
        "brand": "سب وے",
        "brand:ar": "صبوي",
        "brand:ur": "سب وے",
        "brand:website": "https://www.subway.com",
        "brand:wikidata": "Q244457",
        "brand:wikipedia": "ar:صب واي",
        "name:ar": "صبوي",
        "name:de": "Subway",
        "name:en": "Subway",
        "name:es": "Subway",
        "name:ur": "سب وے"
      }
    },
    {
      "type": "Feature",
      "geometry": {
        "type": "Point",
        "coordinates": [
          66.30879230000001,
          26.2300508
        ]
      },
      "properties": {
        "id": 2371672070,
        "name": "Zamurd Khan Restaurant",
        "amenity": "restaurant"
      }
    },
    {
      "type": "Feature",
      "geometry": {
        "type": "Point",
        "coordinates": [
          73.1364875,
          33.557271400000005
        ]
      },
      "properties": {
        "id": 2381285349,
        "name": "Cock & Bull",
        "amenity": "restaurant",
        "cuisine": "burger,_rolls,_chinese"
      }
    },
    {
      "type": "Feature",
      "geometry": {
        "type": "Point",
        "coordinates": [
          73.15587980000001,
          33.569865300000004
        ]
      },
      "properties": {
        "id": 2381291372,
        "name": "Khokhar Hotel",
        "amenity": "restaurant",
        "cuisine": "desi,_driver_hotel"
      }
    },
    {
      "type": "Feature",
      "geometry": {
        "type": "Point",
        "coordinates": [
          73.0636652,
          33.565994200000006
        ]
      },
      "properties": {
        "id": 2388711388,
        "name": "Unnamed",
        "amenity": "cafe"
      }
    },
    {
      "type": "Feature",
      "geometry": {
        "type": "Point",
        "coordinates": [
          73.1252134,
          33.547555700000004
        ]
      },
      "properties": {
        "id": 2390842922,
        "name": "Saffron Grill",
        "amenity": "restaurant",
        "cuisine": "barbecue"
      }
    },
    {
      "type": "Feature",
      "geometry": {
        "type": "Point",
        "coordinates": [
          73.1271385,
          33.5467159
        ]
      },
      "properties": {
        "id": 2390847255,
        "name": "Bull steak House",
        "amenity": "restaurant",
        "cuisine": "steak;burger"
      }
    },
    {
      "type": "Feature",
      "geometry": {
        "type": "Point",
        "coordinates": [
          73.12537680000001,
          33.550645
        ]
      },
      "properties": {
        "id": 2390851026,
        "name": "Olive Garden",
        "addr:city": "راولپنڈی",
        "addr:city:en": "Rawalpindi",
        "addr:city:fr": "Rawalpindi",
        "addr:city:pa": "ਰਾਵਲਪਿੰਡੀ",
        "addr:city:pnb": "راولپنڈی",
        "addr:city:ur": "راولپنڈی",
        "addr:housenumber": "Civic Center Phase 4",
        "addr:street": "Allama Iqbal Avenue",
        "amenity": "restaurant"
      }
    },
    {
      "type": "Feature",
      "geometry": {
        "type": "Point",
        "coordinates": [
          73.1252376,
          33.550807000000006
        ]
      },
      "properties": {
        "id": 2390851029,
        "name": "Mr Cod",
        "addr:city": "راولپنڈی",
        "addr:city:en": "Rawalpindi",
        "addr:city:fr": "Rawalpindi",
        "addr:city:pa": "ਰਾਵਲਪਿੰਡੀ",
        "addr:city:pnb": "راولپنڈی",
        "addr:city:ur": "راولپنڈی",
        "addr:housenumber": "Civic Center Phase 4",
        "addr:street": "Allama Iqbal Avenue",
        "amenity": "restaurant",
        "cuisine": "burger;seafood"
      }
    },
    {
      "type": "Feature",
      "geometry": {
        "type": "Point",
        "coordinates": [
          74.4233827,
          31.5020218
        ]
      },
      "properties": {
        "id": 2405174573,
        "name": "پیزا ہٹ",
        "amenity": "restaurant",
        "brand": "پیزا ہٹ",
        "brand:ar": "بيتزا هت",
        "brand:en": "Pizza Hut",
        "brand:fa": "پیتزا هات",
        "brand:pnb": "پزا ہٹ",
        "brand:ur": "پیزا ہٹ",
        "brand:wikidata": "Q191615",
        "brand:wikipedia": "ur:پیزا ہٹ",
        "brand:wikipedia:ar": "بيتزا هت",
        "brand:wikipedia:fa": "پیتزا هات",
        "brand:wikipedia:pnb": "پزا ہٹ",
        "brand:wikipedia:ur": "پیزا ہٹ",
        "name:ar": "بيتزا هت",
        "name:en": "Pizza Hut",
        "name:fa": "پیتزا هات",
        "name:pnb": "پزا ہٹ",
        "name:ur": "پیزا ہٹ"
      }
    },
    {
      "type": "Feature",
      "geometry": {
        "type": "Point",
        "coordinates": [
          72.717342,
          32.781145300000006
        ]
      },
      "properties": {
        "id": 2409754066,
        "name": "Unnamed",
        "amenity": "restaurant"
      }
    },
    {
      "type": "Feature",
      "geometry": {
        "type": "Point",
        "coordinates": [
          73.1140314,
          31.971480300000003
        ]
      },
      "properties": {
        "id": 2412295628,
        "name": "Unnamed",
        "amenity": "restaurant"
      }
    },
    {
      "type": "Feature",
      "geometry": {
        "type": "Point",
        "coordinates": [
          73.11155710000001,
          31.967872600000003
        ]
      },
      "properties": {
        "id": 2412295639,
        "name": "Unnamed",
        "amenity": "restaurant"
      }
    },
    {
      "type": "Feature",
      "geometry": {
        "type": "Point",
        "coordinates": [
          73.01428630000001,
          33.694293
        ]
      },
      "properties": {
        "id": 2412750099,
        "name": "پیزا ہٹ",
        "addr:city": "اسلام آباد",
        "addr:city:ar": "إسلام آباد",
        "addr:city:en": "Islamabad",
        "addr:city:ks": "اِسلام آبادٖ",
        "addr:city:pnb": "اسلام آباد",
        "addr:city:ps": "اسلام آباد",
        "addr:city:sd": "اسلام آباد",
        "addr:city:ur": "اسلام آباد",
        "amenity": "fast_food",
        "brand": "پیزا ہٹ",
        "brand:ar": "بيتزا هت",
        "brand:en": "Pizza Hut",
        "brand:fa": "پیتزا هات",
        "brand:pnb": "پزا ہٹ",
        "brand:ur": "پیزا ہٹ",
        "brand:wikidata": "Q191615",
        "brand:wikipedia": "ur:پیزا ہٹ",
        "brand:wikipedia:ar": "بيتزا هت",
        "brand:wikipedia:fa": "پیتزا هات",
        "brand:wikipedia:pnb": "پزا ہٹ",
        "brand:wikipedia:ur": "پیزا ہٹ",
        "name:ar": "بيتزا هت",
        "name:en": "Pizza Hut",
        "name:fa": "پیتزا هات",
        "name:pnb": "پزا ہٹ",
        "name:ur": "پیزا ہٹ"
      }
    },
    {
      "type": "Feature",
      "geometry": {
        "type": "Point",
        "coordinates": [
          73.01349300000001,
          33.695016200000005
        ]
      },
      "properties": {
        "id": 2412750105,
        "name": "Unnamed",
        "amenity": "fast_food"
      }
    },
    {
      "type": "Feature",
      "geometry": {
        "type": "Point",
        "coordinates": [
          72.9001238,
          31.760161600000004
        ]
      },
      "properties": {
        "id": 2420702101,
        "name": "شادی ہال",
        "addr:city": "چناب نگر",
        "amenity": "restaurant",
        "name:en": "Marriage Halls",
        "name:ur": "شادی ہال"
      }
    },
    {
      "type": "Feature",
      "geometry": {
        "type": "Point",
        "coordinates": [
          74.36413780000001,
          31.532016600000002
        ]
      },
      "properties": {
        "id": 2425150177,
        "name": "مکڈونلڈز",
        "addr:city": "لاہور",
        "addr:street": "مال روڈ",
        "amenity": "fast_food",
        "brand": "مکڈونلڈز",
        "brand:ar": "مكدونالدز",
        "brand:de": "McDonald’s",
        "brand:en": "McDonald's",
        "brand:fa": "مکدونالدز",
        "brand:pnb": "میکڈونلڈز",
        "brand:ps": "مکډونالډز",
        "brand:ur": "مکڈونلڈز",
        "brand:wikidata": "Q38076",
        "brand:wikipedia": "ur:مکڈونلڈز",
        "brand:wikipedia:ar": "مكدونالدز",
        "brand:wikipedia:fa": "مکدونالدز",
        "brand:wikipedia:pnb": "میکڈونلڈز",
        "brand:wikipedia:ps": "مکډونالډز",
        "brand:wikipedia:ur": "مکڈونلڈز",
        "cuisine": "burger",
        "name:ar": "مكدونالدز",
        "name:de": "McDonald’s",
        "name:en": "McDonald's",
        "name:fa": "مکدونالدز",
        "name:pnb": "میکڈونلڈز",
        "name:ps": "مکډونالډز",
        "name:ur": "مکڈونلڈز"
      }
    },
    {
      "type": "Feature",
      "geometry": {
        "type": "Point",
        "coordinates": [
          71.5479581,
          34.0175343
        ]
      },