{
  "type": "FeatureCollection",
  "features": [
    {
      "type": "Feature",
      "geometry": {
        "type": "Point",
        "coordinates": [
          72.99884250000001,
          33.6905349
        ]
      },
      "properties": {
        "id": 241905500,
        "name": "Tariq Market",
        "addr:city": "اسلام آباد",
        "addr:city:ar": "إسلام آباد",
        "addr:city:en": "Islamabad",
        "addr:city:ks": "اِسلام آبادٖ",
        "addr:city:pnb": "اسلام آباد",
        "addr:city:ps": "اسلام آباد",
        "addr:city:sd": "اسلام آباد",
        "addr:city:ur": "اسلام آباد",
        "addr:place": "F - 10/2",
        "shop": "convenience"
      }
    },
    {
      "type": "Feature",
      "geometry": {
        "type": "Point",
        "coordinates": [
          73.13976550000001,
          33.672493
        ]
      },
      "properties": {
        "id": 242106656,
        "name": "شہزاد ٹاؤن Shehzad Town Chak Shehzad islamabad",
        "addr:city": "islamabad",
        "addr:housenumber": "Shehzad Town",
        "addr:postcode": "46000",
        "addr:street": "Chak shehzad",
        "name:en": "Shehzad Town Chak Shehzad islamabad",
        "name:ur": "شہزاد ٹاؤن",
        "opening_hours": "Mo-Su,PH 10:00-22:00",
        "shop": "supermarket"
      }
    },
    {
      "type": "Feature",
      "geometry": {
        "type": "Point",
        "coordinates": [
          72.98034840000001,
          33.6822808
        ]
      },
      "properties": {
        "id": 258067338,
        "name": "Salman Market",
        "addr:city": "اسلام آباد",
        "addr:city:ar": "إسلام آباد",
        "addr:city:en": "Islamabad",
        "addr:city:ks": "اِسلام آبادٖ",
        "addr:city:pnb": "اسلام آباد",
        "addr:city:ps": "اسلام آباد",
        "addr:city:sd": "اسلام آباد",
        "addr:city:ur": "اسلام آباد",
        "addr:street": "Street 24",
        "landuse": "retail",
        "shop": "convenience"
      }
    },
    {
      "type": "Feature",
      "geometry": {
        "type": "Point",
        "coordinates": [
          74.37320860000001,
          31.471585800000003
        ]
      },
      "properties": {
        "id": 270893763,
        "name": "Unnamed",
        "shop": "convenience"
      }
    },
    {
      "type": "Feature",
      "geometry": {
        "type": "Point",
        "coordinates": [
          72.92523360000001,
          33.9696726
        ]
      },
      "properties": {
        "id": 297470327,
        "name": "Unnamed",
        "created_by": "Potlatch 0.10b",
        "shop": "supermarket"
      }
    },
    {
      "type": "Feature",
      "geometry": {
        "type": "Point",
        "coordinates": [
          74.3461065,
          31.5242296
        ]
      },
      "properties": {
        "id": 300856816,
        "name": "Main Market Gulberg",
        "addr:city": "Lahore",
        "addr:postcode": "54000",
        "addr:street": "Main Boulevard Gulberg",
        "opening_hours": "9am : 11pm",
        "shop": "mall"
      }
    },
    {
      "type": "Feature",
      "geometry": {
        "type": "Point",
        "coordinates": [
          72.930991,
          34.001494
        ]
      },
      "properties": {
        "id": 309598881,
        "name": "Gajal Plaza",
        "created_by": "Potlatch 0.10f",
        "shop": "supermarket"
      }
    },
    {
      "type": "Feature",
      "geometry": {
        "type": "Point",
        "coordinates": [
          72.93264190000001,
          33.9968779
        ]
      },
      "properties": {
        "id": 309675959,
        "name": "Jaferi Market",
        "created_by": "Potlatch 0.10f",
        "shop": "supermarket"
      }
    },
    {
      "type": "Feature",
      "geometry": {
        "type": "Point",
        "coordinates": [
          73.0551664,
          33.5938761
        ]
      },
      "properties": {
        "id": 345552199,
        "name": "XS Mobile",
        "operator": "Aamir",
        "shop": "supermarket"
      }
    },
    {
      "type": "Feature",
      "geometry": {
        "type": "Point",
        "coordinates": [
          74.3817396,
          31.4666041
        ]
      },
      "properties": {
        "id": 364132863,
        "name": "Goldcrest Mall and Apartments",
        "addr:city": "Lahore",
        "addr:postcode": "54000",
        "description": "Mall and Apartment building",
        "shop": "mall"
      }
    },
    {
      "type": "Feature",
      "geometry": {
        "type": "Point",
        "coordinates": [
          72.6793117,
          30.15584
        ]
      },
      "properties": {
        "id": 526698400,
        "name": "Grain Market Al-Muqeet Traders 37G",
        "key": "Nasir Ashraf",
        "operator": "Nasir Ashraf",
        "shop": "supermarket"
      }
    },
    {
      "type": "Feature",
      "geometry": {
        "type": "Point",
        "coordinates": [
          74.3781285,
          31.472876400000004
        ]
      },
      "properties": {
        "id": 533745299,
        "name": "Unnamed",
        "shop": "convenience"
      }
    },
    {
      "type": "Feature",
      "geometry": {
        "type": "Point",
        "coordinates": [
          74.3767638,
          31.4729157
        ]
      },
      "properties": {
        "id": 533745331,
        "name": "Unnamed",
        "shop": "convenience"
      }
    },
    {
      "type": "Feature",
      "geometry": {
        "type": "Point",
        "coordinates": [
          74.37842040000001,
          31.472300800000003
        ]
      },
      "properties": {
        "id": 533745343,
        "name": "Unnamed",
        "shop": "convenience"
      }
    },
    {
      "type": "Feature",
      "geometry": {
        "type": "Point",
        "coordinates": [
          74.376884,
          31.471868900000004
        ]
      },
      "properties": {
        "id": 533745388,
        "name": "Unnamed",
        "shop": "convenience"
      }
    },
    {
      "type": "Feature",
      "geometry": {
        "type": "Point",
        "coordinates": [
          74.3773561,
          31.4720958
        ]
      },
      "properties": {
        "id": 533745430,
        "name": "Unnamed",
        "shop": "convenience"
      }
    },
    {
      "type": "Feature",
      "geometry": {
        "type": "Point",
        "coordinates": [
          67.0269686,
          24.8144196
        ]
      },
      "properties": {
        "id": 596209830,
        "name": "Park Towers Supermarket",
        "addr:city": "Karachi",
        "addr:place": "Clifton Block 5",
        "addr:street": "Shahrah e Firdousi",
        "shop": "supermarket",
        "wheelchair": "yes"
      }
    },
    {
      "type": "Feature",
      "geometry": {
        "type": "Point",
        "coordinates": [
          73.4210044,
          31.3354606
        ]
      },
      "properties": {
        "id": 617962788,
        "name": "Grain Market",
        "shop": "convenience"
      }
    },
    {
      "type": "Feature",
      "geometry": {
        "type": "Point",
        "coordinates": [
          67.08874610000001,
          24.874653600000002
        ]
      },
      "properties": {
        "id": 628587047,
        "name": "Jumbo Super Store",
        "shop": "convenience"
      }
    },
    {
      "type": "Feature",
      "geometry": {
        "type": "Point",
        "coordinates": [
          72.9871111,
          33.6834934
        ]
      },
      "properties": {
        "id": 659736441,
        "name": "Food 24 Hours",
        "amenity": "fast_food",
        "is_in": "F-11 Markaz, Islamabad",
        "shop": "supermarket"
      }
    },
    {
      "type": "Feature",
      "geometry": {
        "type": "Point",
        "coordinates": [
          73.14399940000001,
          33.5803017
        ]
      },
      "properties": {
        "id": 662431116,
        "name": "Unnamed",
        "shop": "convenience"
      }
    },
    {
      "type": "Feature",
      "geometry": {
        "type": "Point",
        "coordinates": [
          74.342343,
          31.509384200000003
        ]
      },
      "properties": {
        "id": 762936150,
        "name": "H Karim Baksh",
        "shop": "supermarket"
      }
    },
    {
      "type": "Feature",
      "geometry": {
        "type": "Point",
        "coordinates": [
          73.04055000000001,
          33.7127752
        ]
      },
      "properties": {
        "id": 920248536,
        "name": "Bakeman",
        "addr:city": "اسلام آباد",
        "addr:city:ar": "إسلام آباد",
        "addr:city:en": "Islamabad",
        "addr:city:ks": "اِسلام آبادٖ",
        "addr:city:pnb": "اسلام آباد",
        "addr:city:ps": "اسلام آباد",
        "addr:city:sd": "اسلام آباد",
        "addr:city:ur": "اسلام آباد",
        "addr:street": "Kohistan Road",
        "shop": "convenience"
      }
    },
    {
      "type": "Feature",
      "geometry": {
        "type": "Point",
        "coordinates": [
          73.02560940000001,
          33.640038700000005
        ]
      },
      "properties": {
        "id": 925162114,
        "name": "METRO cash & carry",
        "addr:city": "islamabad",
        "opening_hours": "24/7",
        "shop": "supermarket"
      }
    },
    {
      "type": "Feature",
      "geometry": {
        "type": "Point",
        "coordinates": [
          74.2618401,
          31.504411800000003
        ]
      },
      "properties": {
        "id": 934985259,
        "name": "Awan Town Market",
        "shop": "supermarket"
      }
    },
    {
      "type": "Feature",
      "geometry": {
        "type": "Point",
        "coordinates": [
          73.07863780000001,
          33.735659600000005
        ]
      },
      "properties": {
        "id": 1089417190,
        "name": "Unnamed",
        "is_in": "Kohsar Market, F-6/3, Islamabad",
        "shop": "convenience"
      }
    },
    {
      "type": "Feature",
      "geometry": {
        "type": "Point",
        "coordinates": [
          68.35658860000001,
          25.371452400000003
        ]
      },
      "properties": {
        "id": 1096869028,
        "name": "Unnamed",
        "addr:city": "حیدرآباد",
        "addr:city:en": "Hyderabad",
        "addr:city:fr": "Hyderâbâd",
        "addr:city:pa": "ਹੈਦਰਾਬਾਦ",
        "addr:city:ur": "حیدرآباد",
        "addr:street": "NAWAB MUZZAFAR ROAD;UNIT 7 MAIN ROAD",
        "shop": "convenience"
      }
    },
    {
      "type": "Feature",
      "geometry": {
        "type": "Point",
        "coordinates": [
          68.35755400000001,
          25.370444400000004
        ]
      },
      "properties": {
        "id": 1096869031,
        "name": "Unnamed",
        "shop": "convenience"
      }
    },
    {
      "type": "Feature",
      "geometry": {
        "type": "Point",
        "coordinates": [
          68.35671710000001,
          25.371539600000002
        ]
      },
      "properties": {
        "id": 1096869049,
        "name": "Unnamed",
        "shop": "convenience"
      }
    },
    {
      "type": "Feature",
      "geometry": {
        "type": "Point",
        "coordinates": [
          68.35734240000001,
          25.3709409
        ]
      },
      "properties": {
        "id": 1096869061,
        "name": "Unnamed",
        "shop": "convenience"
      }
    },
    {
      "type": "Feature",
      "geometry": {
        "type": "Point",
        "coordinates": [
          68.3570605,
          25.3709582
        ]
      },
      "properties": {
        "id": 1096869087,
        "name": "Unnamed",
        "shop": "convenience"
      }
    },
    {
      "type": "Feature",
      "geometry": {
        "type": "Point",
        "coordinates": [
          68.35796730000001,
          25.370017800000003
        ]
      },
      "properties": {
        "id": 1096869105,
        "name": "Unnamed",
        "shop": "convenience"
      }
    },
    {
      "type": "Feature",
      "geometry": {
        "type": "Point",
        "coordinates": [
          68.36312000000001,
          25.366195500000003
        ]
      },
      "properties": {
        "id": 1096925225,
        "name": "Unnamed",
        "shop": "convenience"
      }
    },
    {
      "type": "Feature",
      "geometry": {
        "type": "Point",
        "coordinates": [
          68.3594401,
          25.367930700000002
        ]
      },
      "properties": {
        "id": 1096935288,
        "name": "Unnamed",
        "shop": "convenience"
      }
    },
    {
      "type": "Feature",
      "geometry": {
        "type": "Point",
        "coordinates": [
          68.3579488,
          25.3669903
        ]
      },
      "properties": {
        "id": 1096935294,
        "name": "Unnamed",
        "shop": "convenience"
      }
    },
    {
      "type": "Feature",
      "geometry": {
        "type": "Point",
        "coordinates": [
          68.36601900000001,
          25.368127500000003
        ]
      },
      "properties": {
        "id": 1096935307,
        "name": "Unnamed",
        "shop": "convenience"
      }
    },
    {
      "type": "Feature",
      "geometry": {
        "type": "Point",
        "coordinates": [
          68.35889300000001,
          25.367329700000003
        ]
      },
      "properties": {
        "id": 1096935326,
        "name": "Unnamed",
        "shop": "convenience"
      }
    },
    {
      "type": "Feature",
      "geometry": {
        "type": "Point",
        "coordinates": [
          68.3590989,
          25.3695622
        ]
      },
      "properties": {
        "id": 1096935344,
        "name": "Unnamed",
        "addr:city": "حیدرآباد",
        "addr:city:en": "Hyderabad",
        "addr:city:fr": "Hyderâbâd",
        "addr:city:pa": "ਹੈਦਰਾਬਾਦ",
        "addr:city:ur": "حیدرآباد",
        "addr:street": "NAWAB MUZZAFAR ROAD;UNIT 7 MAIN ROAD",
        "shop": "convenience"
      }
    },
    {
      "type": "Feature",
      "geometry": {
        "type": "Point",
        "coordinates": [
          68.3590882,
          25.3692229
        ]
      },
      "properties": {
        "id": 1096935358,
        "name": "Unnamed",
        "shop": "convenience"
      }
    },
    {
      "type": "Feature",
      "geometry": {
        "type": "Point",
        "coordinates": [
          68.36323490000001,
          25.368767300000002
        ]
      },
      "properties": {
        "id": 1096935360,
        "name": "Unnamed",
        "shop": "convenience"
      }
    },
    {
      "type": "Feature",
      "geometry": {
        "type": "Point",
        "coordinates": [
          68.3600162,
          25.356358000000004
        ]
      },
      "properties": {
        "id": 1096945983,
        "name": "Unnamed",
        "shop": "convenience"
      }
    },
    {
      "type": "Feature",
      "geometry": {
        "type": "Point",
        "coordinates": [
          68.3604674,
          25.3564545
        ]
      },
      "properties": {
        "id": 1096945995,
        "name": "Unnamed",
        "shop": "convenience"
      }
    },
    {
      "type": "Feature",
      "geometry": {
        "type": "Point",
        "coordinates": [
          68.35935110000001,
          25.356639200000004
        ]
      },
      "properties": {
        "id": 1096945997,
        "name": "Unnamed",
        "shop": "convenience"
      }
    },
    {
      "type": "Feature",
      "geometry": {
        "type": "Point",
        "coordinates": [
          68.3613574,
          25.356222300000002
        ]
      },
      "properties": {
        "id": 1096946000,
        "name": "Unnamed",
        "shop": "convenience"
      }
    },
    {
      "type": "Feature",
      "geometry": {
        "type": "Point",
        "coordinates": [
          68.3581709,
          25.3576766
        ]
      },
      "properties": {
        "id": 1096946004,
        "name": "Unnamed",
        "shop": "convenience"
      }
    },
    {
      "type": "Feature",
      "geometry": {
        "type": "Point",
        "coordinates": [
          68.358739,
          25.357143800000003
        ]
      },
      "properties": {
        "id": 1096946012,
        "name": "Unnamed",
        "shop": "convenience"
      }
    },
    {
      "type": "Feature",
      "geometry": {
        "type": "Point",
        "coordinates": [
          68.3587073,
          25.357463300000003
        ]
      },
      "properties": {
        "id": 1096946013,
        "name": "Unnamed",
        "shop": "convenience"
      }
    },
    {
      "type": "Feature",
      "geometry": {
        "type": "Point",
        "coordinates": [
          68.3592009,
          25.357027000000002
        ]
      },
      "properties": {
        "id": 1096946018,
        "name": "Unnamed",
        "addr:city": "حیدرآباد",
        "addr:city:en": "Hyderabad",
        "addr:city:fr": "Hyderâbâd",
        "addr:city:pa": "ਹੈਦਰਾਬਾਦ",
        "addr:city:ur": "حیدرآباد",
        "addr:street": "AIRPORT ROAD;latifabad 11 road",
        "shop": "convenience"
      }
    },
    {
      "type": "Feature",
      "geometry": {
        "type": "Point",
        "coordinates": [
          68.37061630000001,
          25.3933785
        ]
      },
      "properties": {
        "id": 1096998142,
        "name": "Unnamed",
        "shop": "convenience"
      }
    },
    {
      "type": "Feature",
      "geometry": {
        "type": "Point",
        "coordinates": [
          68.3734488,
          25.3871365
        ]
      },
      "properties": {
        "id": 1096998145,
        "name": "Unnamed",
        "shop": "convenience"
      }
    },
    {
      "type": "Feature",
      "geometry": {
        "type": "Point",
        "coordinates": [
          68.37171070000001,
          25.392176600000003
        ]
      },
      "properties": {
        "id": 1096998154,
        "name": "Unnamed",
        "shop": "convenience"
      }
    },
    {
      "type": "Feature",
      "geometry": {
        "type": "Point",
        "coordinates": [
          68.3698439,
          25.3891138
        ]
      },
      "properties": {
        "id": 1096998156,
        "name": "Unnamed",
        "shop": "convenience"
      }
    },
    {
      "type": "Feature",
      "geometry": {
        "type": "Point",
        "coordinates": [
          68.3717965,
          25.3911298
        ]
      },
      "properties": {
        "id": 1096998157,
        "name": "Unnamed",
        "shop": "convenience"
      }
    },
    {
      "type": "Feature",
      "geometry": {
        "type": "Point",
        "coordinates": [
          68.3725261,
          25.387563000000004
        ]
      },
      "properties": {
        "id": 1096998159,
        "name": "Unnamed",
        "shop": "convenience"
      }
    },
    {
      "type": "Feature",
      "geometry": {
        "type": "Point",
        "coordinates": [
          68.37117420000001,
          25.392835700000003
        ]
      },
      "properties": {
        "id": 1096998175,
        "name": "Unnamed",
        "shop": "convenience"
      }
    },
    {
      "type": "Feature",
      "geometry": {
        "type": "Point",
        "coordinates": [
          68.37224710000001,
          25.389172000000002
        ]
      },
      "properties": {
        "id": 1096998182,
        "name": "Unnamed",
        "shop": "convenience"
      }
    },
    {
      "type": "Feature",
      "geometry": {
        "type": "Point",
        "coordinates": [
          68.37196820000001,
          25.3896954
        ]
      },
      "properties": {
        "id": 1096998185,
        "name": "Unnamed",
        "shop": "convenience"
      }
    },
    {
      "type": "Feature",
      "geometry": {
        "type": "Point",
        "coordinates": [
          68.37256900000001,
          25.388415900000002
        ]
      },
      "properties": {
        "id": 1096998195,
        "name": "Unnamed",
        "shop": "convenience"
      }
    },
    {
      "type": "Feature",
      "geometry": {
        "type": "Point",
        "coordinates": [
          68.37104550000001,
          25.393998800000002
        ]
      },
      "properties": {
        "id": 1096999515,
        "name": "Unnamed",
        "shop": "convenience"
      }
    },
    {
      "type": "Feature",
      "geometry": {
        "type": "Point",
        "coordinates": [
          68.37044470000001,
          25.3943283
        ]
      },
      "properties": {
        "id": 1096999520,
        "name": "Unnamed",
        "shop": "convenience"
      }
    },
    {
      "type": "Feature",
      "geometry": {
        "type": "Point",
        "coordinates": [
          68.37007990000001,
          25.3955689
        ]
      },
      "properties": {
        "id": 1096999543,
        "name": "Unnamed",
        "shop": "convenience"
      }
    },
    {
      "type": "Feature",
      "geometry": {
        "type": "Point",
        "coordinates": [
          68.37272770000001,
          25.3777024
        ]
      },
      "properties": {
        "id": 1097703637,
        "name": "Fruit Mandi",
        "addr:city": "حیدرآباد",
        "addr:city:en": "Hyderabad",
        "addr:city:fr": "Hyderâbâd",
        "addr:city:pa": "ਹੈਦਰਾਬਾਦ",
        "addr:city:ur": "حیدرآباد",
        "addr:street": "Khawaja Ghareeb Nawaz Bridge",
        "shop": "supermarket"
      }
    },
    {
      "type": "Feature",
      "geometry": {
        "type": "Point",
        "coordinates": [
          68.37241990000001,
          25.3781791
        ]
      },
      "properties": {
        "id": 1097703638,
        "name": "Sabzi Mandi",
        "addr:city": "حیدرآباد",
        "addr:city:en": "Hyderabad",
        "addr:city:fr": "Hyderâbâd",
        "addr:city:pa": "ਹੈਦਰਾਬਾਦ",
        "addr:city:ur": "حیدرآباد",
        "addr:street": "Khawaja Ghareeb Nawaz Bridge",
        "shop": "supermarket"
      }
    },
    {
      "type": "Feature",
      "geometry": {
        "type": "Point",
        "coordinates": [
          68.3135711,
          25.367342200000003
        ]
      },
      "properties": {
        "id": 1133701026,
        "name": "Unnamed",
        "shop": "convenience"
      }
    },
    {
      "type": "Feature",
      "geometry": {
        "type": "Point",
        "coordinates": [
          68.3140432,
          25.366906000000004
        ]
      },
      "properties": {
        "id": 1133701031,
        "name": "Unnamed",
        "shop": "convenience"
      }
    },
    {
      "type": "Feature",
      "geometry": {
        "type": "Point",
        "coordinates": [
          68.31221930000001,
          25.368534600000004
        ]
      },
      "properties": {
        "id": 1133703994,
        "name": "Unnamed",
        "shop": "convenience"
      }
    },
    {
      "type": "Feature",
      "geometry": {
        "type": "Point",
        "coordinates": [
          71.54499560000001,
          34.002571800000005
        ]
      },
      "properties": {
        "id": 1223932413,
        "name": "Jan's Shopping Plaza",
        "addr:city": "Peshawar",
        "shop": "supermarket"
      }
    },
    {
      "type": "Feature",
      "geometry": {
        "type": "Point",
        "coordinates": [
          71.5343105,
          34.0108332
        ]
      },
      "properties": {
        "id": 1224127547,
        "name": "Defence Shop",
        "shop": "convenience"
      }
    },
    {
      "type": "Feature",
      "geometry": {
        "type": "Point",
        "coordinates": [
          73.0743875,
          33.729195700000005
        ]
      },
      "properties": {
        "id": 1230663592,
        "name": "Sham's",
        "addr:city": "اسلام آباد",
        "addr:city:ar": "إسلام آباد",
        "addr:city:en": "Islamabad",
        "addr:city:ks": "اِسلام آبادٖ",
        "addr:city:pnb": "اسلام آباد",
        "addr:city:ps": "اسلام آباد",
        "addr:city:sd": "اسلام آباد",
        "addr:city:ur": "اسلام آباد",
        "addr:street": "School Road",
        "shop": "convenience"
      }
    },
    {
      "type": "Feature",
      "geometry": {
        "type": "Point",
        "coordinates": [
          73.062723,
          33.712981000000006
        ]
      },
      "properties": {
        "id": 1240999870,
        "name": "Am-Pm grocery",
        "cmt": "25-DEC-09 11:17:57",
        "description": "25-DEC-09 11:17:57",
        "ele": "551.197510",
        "shop": "convenience",
        "source": "GPS",
        "sym": "Shopping Center"
      }
    },
    {
      "type": "Feature",
      "geometry": {
        "type": "Point",
        "coordinates": [
          74.2972546,
          31.4681673
        ]
      },
      "properties": {
        "id": 1357553158,
        "name": "Unnamed",
        "shop": "convenience"
      }
    },
    {
      "type": "Feature",
      "geometry": {
        "type": "Point",
        "coordinates": [
          74.28696570000001,
          31.462136600000004
        ]
      },
      "properties": {
        "id": 1357563769,
        "name": "Unnamed",
        "shop": "convenience"
      }
    },
    {
      "type": "Feature",
      "geometry": {
        "type": "Point",
        "coordinates": [
          74.28816730000001,
          31.462758900000004
        ]
      },
      "properties": {
        "id": 1357563771,
        "name": "Unnamed",
        "shop": "supermarket"
      }
    },
    {
      "type": "Feature",
      "geometry": {
        "type": "Point",
        "coordinates": [
          73.11239400000001,
          33.566993200000006
        ]
      },
      "properties": {
        "id": 1360613998,
        "name": "Shahzeb General Store",
        "shop": "convenience"
      }
    },
    {
      "type": "Feature",
      "geometry": {
        "type": "Point",
        "coordinates": [
          73.0828745,
          33.609740800000004
        ]
      },
      "properties": {
        "id": 1361318352,
        "name": "Unnamed",
        "shop": "convenience"
      }
    },
    {
      "type": "Feature",
      "geometry": {
        "type": "Point",
        "coordinates": [
          73.1057976,
          33.573282600000006
        ]
      },
      "properties": {
        "id": 1362714201,
        "name": "Unnamed",
        "shop": "convenience"
      }
    },
    {
      "type": "Feature",
      "geometry": {
        "type": "Point",
        "coordinates": [
          73.10585110000001,
          33.573403500000005
        ]
      },
      "properties": {
        "id": 1362714224,
        "name": "Superstore",
        "shop": "supermarket"
      }
    },
    {
      "type": "Feature",
      "geometry": {
        "type": "Point",
        "coordinates": [
          73.10668050000001,
          33.5623087
        ]
      },
      "properties": {
        "id": 1363366614,
        "name": "General Store",
        "shop": "convenience"
      }
    },
    {
      "type": "Feature",
      "geometry": {
        "type": "Point",
        "coordinates": [
          73.1064444,
          33.561638300000006
        ]
      },
      "properties": {
        "id": 1363366616,
        "name": "Bakala Super Store",
        "shop": "supermarket"
      }
    },
    {
      "type": "Feature",
      "geometry": {
        "type": "Point",
        "coordinates": [
          73.0734783,
          33.584275600000005
        ]
      },
      "properties": {
        "id": 1363495897,
        "name": "Save Mart",
        "addr:city": "Rawalpindi, Punjab, Pakistan",
        "payment:cash": "yes",
        "payment:credit_cards": "yes",
        "payment:debit_cards": "yes",
        "payment:mastercard": "yes",
        "payment:visa": "yes",
        "shop": "supermarket"
      }
    },
    {
      "type": "Feature",
      "geometry": {
        "type": "Point",
        "coordinates": [
          73.08124240000001,
          33.608677300000004
        ]
      },
      "properties": {
        "id": 1365161269,
        "name": "General Store",
        "shop": "convenience"
      }
    },
    {
      "type": "Feature",
      "geometry": {
        "type": "Point",
        "coordinates": [
          73.0769937,
          33.5896915
        ]
      },
      "properties": {
        "id": 1365195153,
        "name": "Super Store",
        "shop": "convenience"
      }
    },
    {
      "type": "Feature",
      "geometry": {
        "type": "Point",
        "coordinates": [
          73.10234790000001,
          33.556424500000006
        ]
      },
      "properties": {
        "id": 1365195158,
        "name": "Superstore",
        "shop": "supermarket"
      }
    },
    {
      "type": "Feature",
      "geometry": {
        "type": "Point",
        "coordinates": [
          73.10445600000001,
          33.556848
        ]
      },
      "properties": {
        "id": 1365195162,
        "name": "General Store",
        "shop": "convenience"
      }
    },
    {
      "type": "Feature",
      "geometry": {
        "type": "Point",
        "coordinates": [
          73.0888661,
          33.5858257
        ]
      },
      "properties": {
        "id": 1412407827,
        "name": "Super Store",
        "shop": "supermarket"
      }
    },
    {
      "type": "Feature",
      "geometry": {
        "type": "Point",
        "coordinates": [
          73.0900034,
          33.584788700000004
        ]
      },
      "properties": {
        "id": 1412407839,
        "name": "Sales Day Store",
        "shop": "supermarket"
      }
    },
    {
      "type": "Feature",
      "geometry": {
        "type": "Point",
        "coordinates": [
          73.0898049,
          33.585195600000006
        ]
      },
      "properties": {
        "id": 1412407853,
        "name": "Utility Store",
        "shop": "supermarket"
      }
    },
    {
      "type": "Feature",
      "geometry": {
        "type": "Point",
        "coordinates": [
          73.0879544,
          33.5863462
        ]
      },
      "properties": {
        "id": 1412407855,
        "name": "Unnamed",
        "shop": "convenience"
      }
    },
    {
      "type": "Feature",
      "geometry": {
        "type": "Point",
        "coordinates": [
          73.0887428,
          33.585910600000005
        ]
      },
      "properties": {
        "id": 1412416266,
        "name": "Kashif General Store",
        "shop": "convenience"
      }
    },
    {
      "type": "Feature",
      "geometry": {
        "type": "Point",
        "coordinates": [
          73.0535954,
          33.594687400000005
        ]
      },
      "properties": {
        "id": 1414238076,
        "name": "Unnamed",
        "shop": "convenience"
      }
    },
    {
      "type": "Feature",
      "geometry": {
        "type": "Point",
        "coordinates": [
          73.0552906,
          33.5941155
        ]
      },
      "properties": {
        "id": 1414238080,
        "name": "City Store",
        "shop": "supermarket"
      }
    },
    {
      "type": "Feature",
      "geometry": {
        "type": "Point",
        "coordinates": [
          73.0551726,
          33.593454200000004
        ]
      },
      "properties": {
        "id": 1414238186,
        "name": "Metro Shoes",
        "shop": "supermarket"
      }
    },
    {
      "type": "Feature",
      "geometry": {
        "type": "Point",
        "coordinates": [
          73.05250020000001,
          33.5961549
        ]
      },
      "properties": {
        "id": 1414264848,
        "name": "Unnamed",
        "shop": "convenience"
      }
    },
    {
      "type": "Feature",
      "geometry": {
        "type": "Point",
        "coordinates": [
          73.10660250000001,
          33.5626534
        ]
      },
      "properties": {
        "id": 1420479744,
        "name": "General Store",
        "shop": "convenience"
      }
    },
    {
      "type": "Feature",
      "geometry": {
        "type": "Point",
        "coordinates": [
          73.10660250000001,
          33.561348100000004
        ]
      },
      "properties": {
        "id": 1420479749,
        "name": "Food Mart",
        "shop": "convenience"
      }
    },
    {
      "type": "Feature",
      "geometry": {
        "type": "Point",
        "coordinates": [
          73.0428007,
          33.7161266
        ]
      },
      "properties": {
        "id": 1425890636,
        "name": "Abbasi Market",
        "shop": "convenience"
      }
    },
    {
      "type": "Feature",
      "geometry": {
        "type": "Point",
        "coordinates": [
          66.94263500000001,
          24.876226000000003
        ]
      },
      "properties": {
        "id": 1428198398,
        "name": "Walk n Shop",
        "shop": "convenience"
      }
    },
    {
      "type": "Feature",
      "geometry": {
        "type": "Point",
        "coordinates": [
          66.9544936,
          24.886518700000003
        ]
      },
      "properties": {
        "id": 1428265993,
        "name": "General Store",
        "shop": "convenience"
      }
    },
    {
      "type": "Feature",
      "geometry": {
        "type": "Point",
        "coordinates": [
          66.95480420000001,
          24.887677300000004
        ]
      },
      "properties": {
        "id": 1428265998,
        "name": "General Store",
        "shop": "convenience"
      }
    },
    {
      "type": "Feature",
      "geometry": {
        "type": "Point",
        "coordinates": [
          66.9500314,
          24.883447000000004
        ]
      },
      "properties": {
        "id": 1440050893,
        "name": "CSD Store",
        "shop": "supermarket"
      }
    },
    {
      "type": "Feature",
      "geometry": {
        "type": "Point",
        "coordinates": [
          66.95529930000001,
          24.886057800000003
        ]
      },
      "properties": {
        "id": 1440050911,
        "name": "General Store",
        "shop": "convenience"
      }
    },
    {
      "type": "Feature",
      "geometry": {
        "type": "Point",
        "coordinates": [
          66.94969350000001,
          24.882434800000002
        ]
      },
      "properties": {
        "id": 1440065041,
        "name": "Convenience Shop",
        "shop": "convenience"
      }
    },
    {
      "type": "Feature",
      "geometry": {
        "type": "Point",
        "coordinates": [
          66.95622200000001,
          24.884685500000003
        ]
      },
      "properties": {
        "id": 1440070261,
        "name": "General Store",
        "shop": "convenience"
      }
    },
    {
      "type": "Feature",
      "geometry": {
        "type": "Point",
        "coordinates": [
          66.95617100000001,
          24.884649000000003
        ]
      },
      "properties": {
        "id": 1440070274,
        "name": "General Store",
        "shop": "convenience"
      }
    },
    {
      "type": "Feature",
      "geometry": {
        "type": "Point",
        "coordinates": [
          66.9559698,
          24.8849313
        ]
      },
      "properties": {
        "id": 1440070283,
        "name": "General Store",
        "shop": "convenience"
      }
    },
    {
      "type": "Feature",
      "geometry": {
        "type": "Point",
        "coordinates": [
          71.5051521,
          30.271191100000003
        ]
      },
      "properties": {
        "id": 1532540163,
        "name": "shop",
        "designation": "near choudhry photo",
        "opening_hours": "Mo-Su 06:00-23:00",
        "shop": "supermarket",
        "source": "local survey"
      }
    },
    {
      "type": "Feature",
      "geometry": {
        "type": "Point",
        "coordinates": [
          68.3581255,
          25.369496500000004
        ]
      },
      "properties": {
        "id": 1611365419,
        "name": "Unnamed",
        "shop": "supermarket"
      }
    },
    {
      "type": "Feature",
      "geometry": {
        "type": "Point",
        "coordinates": [
          68.36252440000001,
          25.366156800000002
        ]
      },
      "properties": {
        "id": 1611367024,
        "name": "Unnamed",
        "shop": "convenience"
      }
    },
    {
      "type": "Feature",
      "geometry": {
        "type": "Point",
        "coordinates": [
          68.3462863,
          25.3589148
        ]
      },
      "properties": {
        "id": 1611372929,
        "name": "Unnamed",
        "shop": "convenience"
      }
    },
    {
      "type": "Feature",
      "geometry": {
        "type": "Point",
        "coordinates": [
          67.1948553,
          24.892587300000002
        ]
      },
      "properties": {
        "id": 1640164796,
        "name": "Liaquat Market",
        "shop": "convenience"
      }
    },
    {
      "type": "Feature",
      "geometry": {
        "type": "Point",
        "coordinates": [
          73.1778283,
          33.6454917
        ]
      },
      "properties": {
        "id": 1669871385,
        "name": "Umer Traders",
        "shop": "supermarket"
      }
    },
    {
      "type": "Feature",
      "geometry": {
        "type": "Point",
        "coordinates": [
          73.18331640000001,
          33.6450498
        ]
      },
      "properties": {
        "id": 1673425831,
        "name": "Utility Store",
        "shop": "supermarket"
      }
    },
    {
      "type": "Feature",
      "geometry": {
        "type": "Point",
        "coordinates": [
          73.18676,
          33.645237900000005
        ]
      },
      "properties": {
        "id": 1673668452,
        "name": "Mehmood Plaza",
        "shop": "supermarket"
      }
    },
    {
      "type": "Feature",
      "geometry": {
        "type": "Point",
        "coordinates": [
          74.34465200000001,
          31.523821100000003
        ]
      },
      "properties": {
        "id": 1749449949,
        "name": "UTILITY STORES",
        "shop": "supermarket"
      }
    },
    {
      "type": "Feature",
      "geometry": {
        "type": "Point",
        "coordinates": [
          74.37581770000001,
          31.484588300000002
        ]
      },
      "properties": {
        "id": 1758753093,
        "name": "Unnamed",
        "shop": "convenience"
      }
    },
    {
      "type": "Feature",
      "geometry": {
        "type": "Point",
        "coordinates": [
          74.37569590000001,
          31.484615500000004
        ]
      },
      "properties": {
        "id": 1758753094,
        "name": "Unnamed",
        "shop": "convenience"
      }
    },
    {
      "type": "Feature",
      "geometry": {
        "type": "Point",
        "coordinates": [
          74.3769364,
          31.4856103
        ]
      },
      "properties": {
        "id": 1758753106,
        "name": "Unnamed",
        "shop": "convenience"
      }
    },
    {
      "type": "Feature",
      "geometry": {
        "type": "Point",
        "coordinates": [
          74.3750588,
          31.4856903
        ]
      },
      "properties": {
        "id": 1758753112,
        "name": "Unnamed",
        "shop": "convenience"
      }
    },
    {
      "type": "Feature",
      "geometry": {
        "type": "Point",
        "coordinates": [
          74.3787269,
          31.484571100000004
        ]
      },
      "properties": {
        "id": 1759671239,
        "name": "Unnamed",
        "shop": "convenience"
      }
    },
    {
      "type": "Feature",
      "geometry": {
        "type": "Point",
        "coordinates": [
          71.90462260000001,
          29.635245
        ]
      },
      "properties": {
        "id": 1811293650,
        "name": "Khan Super Store",
        "shop": "convenience"
      }
    },
    {
      "type": "Feature",
      "geometry": {
        "type": "Point",
        "coordinates": [
          71.9055802,
          29.634354400000003
        ]
      },
      "properties": {
        "id": 1811305014,
        "name": "Al Raza Hardware Store",
        "shop": "convenience"
      }
    },
    {
      "type": "Feature",
      "geometry": {
        "type": "Point",
        "coordinates": [
          67.03357000000001,
          24.826920700000002
        ]
      },
      "properties": {
        "id": 1847109694,
        "name": "Mottas",
        "addr:city": "Karachi",
        "addr:place": "Clifton Block 5",
        "shop": "supermarket"
      }
    },
    {
      "type": "Feature",
      "geometry": {
        "type": "Point",
        "coordinates": [
          73.08267260000001,
          33.654345400000004
        ]
      },
      "properties": {
        "id": 1912016389,
        "name": "Khan Karyana Store",
        "addr:street": "Street No. 24",
        "shop": "convenience",
        "wheelchair": "no"
      }
    },
    {
      "type": "Feature",
      "geometry": {
        "type": "Point",
        "coordinates": [
          71.465592,
          30.194678000000003
        ]
      },
      "properties": {
        "id": 1921952408,
        "name": "Ahmed Arcade",
        "addr:city": "ملتان",
        "shop": "supermarket"
      }
    },
    {
      "type": "Feature",
      "geometry": {
        "type": "Point",
        "coordinates": [
          71.461022,
          30.20736
        ]
      },
      "properties": {
        "id": 1921952420,
        "name": "Ali Arcade",
        "addr:city": "ملتان",
        "addr:street": "LMQ Rd",
        "shop": "supermarket"
      }
    },
    {
      "type": "Feature",
      "geometry": {
        "type": "Point",
        "coordinates": [
          71.451881,
          30.193434000000003
        ]
      },
      "properties": {
        "id": 1921952550,
        "name": "Chenone",
        "addr:city": "ملتان",
        "addr:street": "Abdali Rd",
        "shop": "supermarket"
      }
    },
    {
      "type": "Feature",
      "geometry": {
        "type": "Point",
        "coordinates": [
          71.47041340000001,
          30.199213900000004
        ]
      },
      "properties": {
        "id": 1921952590,
        "name": "کرافٹ بازار",
        "addr:city": "ملتان",
        "name:en": "Craft Bazar",
        "name:ur": "کرافٹ بازار",
        "shop": "supermarket"
      }
    },
    {
      "type": "Feature",
      "geometry": {
        "type": "Point",
        "coordinates": [
          71.43917800000001,
          30.188456000000002
        ]
      },
      "properties": {
        "id": 1921952983,
        "name": "Fruit Market",
        "addr:city": "ملتان",
        "shop": "supermarket"
      }
    },
    {
      "type": "Feature",
      "geometry": {
        "type": "Point",
        "coordinates": [
          71.469176,
          30.175281000000002
        ]
      },
      "properties": {
        "id": 1921953033,
        "name": "Ghala Mandi Multan",
        "addr:city": "ملتان",
        "shop": "supermarket"
      }
    },
    {
      "type": "Feature",
      "geometry": {
        "type": "Point",
        "coordinates": [
          71.48737200000001,
          30.171976000000004
        ]
      },
      "properties": {
        "id": 1921953451,
        "name": "Hamid commercial",
        "addr:city": "ملتان",
        "addr:street": "Vehari Rd",
        "shop": "supermarket"
      }
    },
    {
      "type": "Feature",
      "geometry": {
        "type": "Point",
        "coordinates": [
          71.441646,
          30.188026000000004
        ]
      },
      "properties": {
        "id": 1921953503,
        "name": "Hassan Arcade",
        "addr:city": "ملتان",
        "addr:street": "Nusrat Rd",
        "shop": "supermarket"
      }
    },
    {
      "type": "Feature",
      "geometry": {
        "type": "Point",
        "coordinates": [
          71.4436009,
          30.191799900000003
        ]
      },
      "properties": {
        "id": 1921953748,
        "name": "مرکز خان",
        "addr:city": "ملتان",
        "addr:street": "عبدلی روڈ",
        "name:ar": "مركز خان",
        "name:en": "Khan Centre",
        "name:es": "Centro Kan",
        "name:ur": "مرکز خان",
        "shop": "supermarket"
      }
    },
    {
      "type": "Feature",
      "geometry": {
        "type": "Point",
        "coordinates": [
          71.439822,
          30.191309000000004
        ]
      },
      "properties": {
        "id": 1921953749,
        "name": "Khan Plaza",
        "addr:city": "ملتان",
        "shop": "supermarket"
      }
    },
    {
      "type": "Feature",
      "geometry": {
        "type": "Point",
        "coordinates": [
          71.452932,
          30.190580000000004
        ]
      },
      "properties": {
        "id": 1921953779,
        "name": "Liberty Centre",
        "addr:city": "ملتان",
        "shop": "supermarket"
      }
    },
    {
      "type": "Feature",
      "geometry": {
        "type": "Point",
        "coordinates": [
          71.4736786,
          30.227579900000002
        ]
      },
      "properties": {
        "id": 1921954014,
        "name": "Unnamed",
        "addr:city": "ملتان",
        "shop": "supermarket"
      }
    },
    {
      "type": "Feature",
      "geometry": {
        "type": "Point",
        "coordinates": [
          71.44132400000001,
          30.190687000000004
        ]
      },
      "properties": {
        "id": 1921954018,
        "name": "Multan Cener",
        "addr:city": "ملتان",
        "addr:street": "Nusrat Rd",
        "shop": "supermarket"
      }
    },
    {
      "type": "Feature",
      "geometry": {
        "type": "Point",
        "coordinates": [
          71.44213900000001,
          30.149231000000004
        ]
      },
      "properties": {
        "id": 1921954086,
        "name": "Unnamed",
        "addr:city": "ملتان",
        "shop": "mall"
      }
    },
    {
      "type": "Feature",
      "geometry": {
        "type": "Point",
        "coordinates": [
          71.436818,
          30.187576000000004
        ]
      },
      "properties": {
        "id": 1921954117,
        "name": "Prince Dept Store",
        "addr:city": "ملتان",
        "shop": "supermarket"
      }
    },
    {
      "type": "Feature",
      "geometry": {
        "type": "Point",
        "coordinates": [
          71.448898,
          30.183327000000002
        ]
      },
      "properties": {
        "id": 1921954275,
        "name": "Sharif Centre",
        "addr:city": "ملتان",
        "shop": "supermarket"
      }
    },
    {
      "type": "Feature",
      "geometry": {
        "type": "Point",
        "coordinates": [
          71.473854,
          30.223196
        ]
      },
      "properties": {
        "id": 1921954415,
        "name": "Trend",
        "addr:city": "ملتان",
        "shop": "convenience"
      }
    },
    {
      "type": "Feature",
      "geometry": {
        "type": "Point",
        "coordinates": [
          71.451666,
          30.193348000000004
        ]
      },
      "properties": {
        "id": 1921954445,
        "name": "The United Mall",
        "addr:city": "ملتان",
        "addr:street": "Abdali Rd",
        "shop": "supermarket"
      }
    },
    {
      "type": "Feature",
      "geometry": {
        "type": "Point",
        "coordinates": [
          71.490633,
          30.185666
        ]
      },
      "properties": {
        "id": 1921954578,
        "name": "Wholesale cloth Market",
        "addr:city": "ملتان",
        "shop": "supermarket"
      }
    },
    {
      "type": "Feature",
      "geometry": {
        "type": "Point",
        "coordinates": [
          71.43641000000001,
          30.186117000000003
        ]
      },
      "properties": {
        "id": 1921954661,
        "name": "international plaza cantt",
        "addr:city": "ملتان",
        "shop": "supermarket"
      }
    },
    {
      "type": "Feature",
      "geometry": {
        "type": "Point",
        "coordinates": [
          71.659098,
          29.398942
        ]
      },
      "properties": {
        "id": 1925508105,
        "name": "Prince Mart",
        "addr:city": "BAHAWALPUR",
        "addr:country": "PK",
        "addr:district": "BAHAWALPUR",
        "addr:region": "PUNJAB",
        "shop": "supermarket"
      }
    },
    {
      "type": "Feature",
      "geometry": {
        "type": "Point",
        "coordinates": [
          70.633678,
          30.056791000000004
        ]
      },
      "properties": {
        "id": 1927270796,
        "name": "City Shopping Center",
        "shop": "supermarket"
      }
    },
    {
      "type": "Feature",
      "geometry": {
        "type": "Point",
        "coordinates": [
          70.636683,
          30.056319000000002
        ]
      },
      "properties": {
        "id": 1927270817,
        "name": "OK shopping Cener",
        "shop": "supermarket"
      }
    },
    {
      "type": "Feature",
      "geometry": {
        "type": "Point",
        "coordinates": [
          70.630846,
          30.054302000000003
        ]
      },
      "properties": {
        "id": 1927270822,
        "name": "United Bank",
        "shop": "supermarket"
      }
    },
    {
      "type": "Feature",
      "geometry": {
        "type": "Point",
        "coordinates": [
          73.08574130000001,
          33.6510855
        ]
      },
      "properties": {
        "id": 1980967815,
        "name": "Karyana Store",
        "shop": "convenience",
        "source": "al suvey -- SaafPindi"
      }
    },
    {
      "type": "Feature",
      "geometry": {
        "type": "Point",
        "coordinates": [
          73.09066080000001,
          33.647441900000004
        ]
      },
      "properties": {
        "id": 2000833425,
        "name": "Unnamed",
        "shop": "convenience"
      }
    },
    {
      "type": "Feature",
      "geometry": {
        "type": "Point",
        "coordinates": [
          73.0933298,
          33.6529998
        ]
      },
      "properties": {
        "id": 2013215637,
        "name": "General Store",
        "shop": "convenience",
        "source": "Physical suvey -- SaafPindi"
      }
    },
    {
      "type": "Feature",
      "geometry": {
        "type": "Point",
        "coordinates": [
          73.0933366,
          33.650883900000004
        ]
      },
      "properties": {
        "id": 2013215638,
        "name": "Madina General Store",
        "shop": "convenience",
        "source": "Physical suvey -- SaafPindi"
      }
    },
    {
      "type": "Feature",
      "geometry": {
        "type": "Point",
        "coordinates": [
          73.09268200000001,
          33.6506277
        ]
      },
      "properties": {
        "id": 2013232107,
        "name": "Afraz Khattak Karyana Store",
        "shop": "convenience",
        "source": "Physical suvey -- SaafPindi"
      }
    },
    {
      "type": "Feature",
      "geometry": {
        "type": "Point",
        "coordinates": [
          73.09167090000001,
          33.650730800000005
        ]
      },
      "properties": {
        "id": 2013279811,
        "name": "Karyana Store",
        "shop": "convenience",
        "source": "Physical suvey -- SaafPindi"
      }
    },
    {
      "type": "Feature",
      "geometry": {
        "type": "Point",
        "coordinates": [
          73.09321990000001,
          33.649738000000006
        ]
      },
      "properties": {
        "id": 2013318227,
        "name": "Bismillah Karyana Store",
        "shop": "convenience",
        "source": "Physical suvey -- SaafPindi"
      }
    },
    {
      "type": "Feature",
      "geometry": {
        "type": "Point",
        "coordinates": [
          73.09339100000001,
          33.6502342
        ]
      },
      "properties": {
        "id": 2013335520,
        "name": "Bismillah Karyana Store & General store",
        "shop": "convenience",
        "source": "Physical suvey -- SaafPindi"
      }
    },
    {
      "type": "Feature",
      "geometry": {
        "type": "Point",
        "coordinates": [
          73.09307790000001,
          33.6501596
        ]
      },
      "properties": {
        "id": 2013335522,
        "name": "Fiaz Brother General Store",
        "shop": "convenience",
        "source": "Physical suvey -- SaafPindi"
      }
    },
    {
      "type": "Feature",
      "geometry": {
        "type": "Point",
        "coordinates": [
          73.0928842,
          33.6501377
        ]
      },
      "properties": {
        "id": 2013335525,
        "name": "Mashallah Karyana Store",
        "shop": "convenience",
        "source": "Physical suvey -- SaafPindi"
      }
    },
    {
      "type": "Feature",
      "geometry": {
        "type": "Point",
        "coordinates": [
          73.08723350000001,
          33.6446751
        ]
      },
      "properties": {
        "id": 2016144809,
        "name": "Adel & Moiz Tuk Shop",
        "shop": "convenience",
        "source": "Physical suvey -- SaafPindi"
      }
    },
    {
      "type": "Feature",
      "geometry": {
        "type": "Point",
        "coordinates": [
          73.0871896,
          33.646037
        ]
      },
      "properties": {
        "id": 2016144817,
        "name": "Karyana Store",
        "shop": "convenience"
      }
    },
    {
      "type": "Feature",
      "geometry": {
        "type": "Point",
        "coordinates": [
          73.0873183,
          33.644293600000005
        ]
      },
      "properties": {
        "id": 2016144819,
        "name": "Peradise Gujjar General Store",
        "shop": "convenience",
        "source": "Physical suvey -- SaafPindi"
      }
    },
    {
      "type": "Feature",
      "geometry": {
        "type": "Point",
        "coordinates": [
          73.090551,
          33.6409272
        ]
      },
      "properties": {
        "id": 2027815106,
        "name": "Awan General Store",
        "shop": "convenience",
        "source": "Physical suvey -- SaafPindi"
      }
    },
    {
      "type": "Feature",
      "geometry": {
        "type": "Point",
        "coordinates": [
          73.0807063,
          33.6426749
        ]
      },
      "properties": {
        "id": 2027815118,
        "name": "Unnamed",
        "description": "General Store",
        "shop": "convenience",
        "source": "Physical suvey -- SaafPindi"
      }
    },
    {
      "type": "Feature",
      "geometry": {
        "type": "Point",
        "coordinates": [
          73.07921280000001,
          33.6430221
        ]
      },
      "properties": {
        "id": 2027815121,
        "name": "General Store",
        "shop": "convenience"
      }
    },
    {
      "type": "Feature",
      "geometry": {
        "type": "Point",
        "coordinates": [
          73.0838456,
          33.642028700000004
        ]
      },
      "properties": {
        "id": 2027815124,
        "name": "Gulstion Plaza",
        "shop": "supermarket",
        "source": "Physical suvey -- SaafPindi"
      }
    },
    {
      "type": "Feature",
      "geometry": {
        "type": "Point",
        "coordinates": [
          73.0826529,
          33.641327100000005
        ]
      },
      "properties": {
        "id": 2027815128,
        "name": "Hamad General Store",
        "shop": "convenience",
        "source": "Physical suvey -- SaafPindi"
      }
    },
    {
      "type": "Feature",
      "geometry": {
        "type": "Point",
        "coordinates": [
          73.08755980000001,
          33.6410008
        ]
      },
      "properties": {
        "id": 2027815140,
        "name": "Karyana Store(Home)",
        "shop": "convenience",
        "source": "Physical suvey -- SaafPindi"
      }
    },
    {
      "type": "Feature",
      "geometry": {
        "type": "Point",
        "coordinates": [
          73.09061480000001,
          33.640970100000004
        ]
      },
      "properties": {
        "id": 2027815141,
        "name": "Kaynat General Store",
        "shop": "convenience",
        "source": "Physical suvey -- SaafPindi"
      }
    },
    {
      "type": "Feature",
      "geometry": {
        "type": "Point",
        "coordinates": [
          73.0888949,
          33.640597400000004
        ]
      },
      "properties": {
        "id": 2027815142,
        "name": "Pakistan General Store",
        "shop": "convenience",
        "source": "Physical suvey -- SaafPindi"
      }
    },
    {
      "type": "Feature",
      "geometry": {
        "type": "Point",
        "coordinates": [
          73.0827737,
          33.6418558
        ]
      },
      "properties": {
        "id": 2027815153,
        "name": "Raja G Karyana Store",
        "shop": "convenience",
        "source": "Physical suvey -- SaafPindi"
      }
    },
    {
      "type": "Feature",
      "geometry": {
        "type": "Point",
        "coordinates": [
          73.0903095,
          33.6433856
        ]
      },
      "properties": {
        "id": 2027880338,
        "name": "Karyana Store",
        "shop": "convenience"
      }
    },
    {
      "type": "Feature",
      "geometry": {
        "type": "Point",
        "coordinates": [
          73.09081350000001,
          33.643486
        ]
      },
      "properties": {
        "id": 2027880339,
        "name": "Karyana Store",
        "shop": "convenience",
        "source": "Physical suvey -- SaafPindi"
      }
    },
    {
      "type": "Feature",
      "geometry": {
        "type": "Point",
        "coordinates": [
          73.0910824,
          33.6435757
        ]
      },
      "properties": {
        "id": 2027880340,
        "name": "Karyana Store",
        "shop": "convenience",
        "source": "Physical suvey -- SaafPindi"
      }
    },
    {
      "type": "Feature",
      "geometry": {
        "type": "Point",
        "coordinates": [
          73.0901292,
          33.6428999
        ]
      },
      "properties": {
        "id": 2027880342,
        "name": "Qurat-ul-Ain General Store",
        "shop": "convenience"
      }
    },
    {
      "type": "Feature",
      "geometry": {
        "type": "Point",
        "coordinates": [
          73.08423130000001,
          33.6392607
        ]
      },
      "properties": {
        "id": 2034266180,
        "name": "Ghadar General Store",
        "shop": "convenience",
        "source": "Physical suvey -- SaafPindi"
      }
    },
    {
      "type": "Feature",
      "geometry": {
        "type": "Point",
        "coordinates": [
          73.0852188,
          33.6399277
        ]
      },
      "properties": {
        "id": 2034266181,
        "name": "Samee Karyana & General Store",
        "shop": "convenience"
      }
    },
    {
      "type": "Feature",
      "geometry": {
        "type": "Point",
        "coordinates": [
          73.0831445,
          33.6373078
        ]
      },
      "properties": {
        "id": 2034323563,
        "name": "Hashim General Store",
        "shop": "convenience"
      }
    },
    {
      "type": "Feature",
      "geometry": {
        "type": "Point",
        "coordinates": [
          73.08229440000001,
          33.635683300000004
        ]
      },
      "properties": {
        "id": 2034442418,
        "name": "Raja Ishfaq Karyana Store",
        "shop": "convenience",
        "source": "Physical suvey -- SaafPindi"
      }
    },
    {
      "type": "Feature",
      "geometry": {
        "type": "Point",
        "coordinates": [
          73.08215000000001,
          33.636047700000006
        ]
      },
      "properties": {
        "id": 2034442428,
        "name": "Tanvir General Store",
        "shop": "convenience",
        "source": "Physical suvey -- SaafPindi"
      }
    },
    {
      "type": "Feature",
      "geometry": {
        "type": "Point",
        "coordinates": [
          73.15320720000001,
          33.5298761
        ]
      },
      "properties": {
        "id": 2088404867,
        "name": "Shopping mall Sector C",
        "shop": "supermarket"
      }
    },
    {
      "type": "Feature",
      "geometry": {
        "type": "Point",
        "coordinates": [
          67.03066000000001,
          24.801906700000004
        ]
      },
      "properties": {
        "id": 2201917423,
        "name": "Carefour Super Market",
        "addr:city": "Karachi",
        "addr:housenumber": "Dolmen Mall",
        "addr:street": "Abdul Sattar Edhi Road",
        "opening_hours": "09:00-23:00",
        "operator": "Dolmen Mall",
        "shop": "supermarket"
      }
    },
    {
      "type": "Feature",
      "geometry": {
        "type": "Point",
        "coordinates": [
          73.09903530000001,
          33.5395297
        ]
      },
      "properties": {
        "id": 2209538062,
        "name": "Unnamed",
        "shop": "supermarket"
      }
    },
    {
      "type": "Feature",
      "geometry": {
        "type": "Point",
        "coordinates": [
          73.7552818,
          33.142042100000005
        ]
      },
      "properties": {
        "id": 2242320627,
        "name": "Irfan Plaza",
        "shop": "supermarket"
      }
    },
    {
      "type": "Feature",
      "geometry": {
        "type": "Point",
        "coordinates": [
          73.7479433,
          33.1462103
        ]
      },
      "properties": {
        "id": 2242361070,
        "name": "Faisal shopping centre",
        "shop": "supermarket"
      }
    },
    {
      "type": "Feature",
      "geometry": {
        "type": "Point",
        "coordinates": [
          73.7502446,
          33.148466000000006
        ]
      },
      "properties": {
        "id": 2242363233,
        "name": "Ashaq plaza",
        "shop": "supermarket"
      }
    },
    {
      "type": "Feature",
      "geometry": {
        "type": "Point",
        "coordinates": [
          73.73773700000001,
          33.1537093
        ]
      },
      "properties": {
        "id": 2242413118,
        "name": "Faisal plaza",
        "shop": "supermarket"
      }
    },
    {
      "type": "Feature",
      "geometry": {
        "type": "Point",
        "coordinates": [
          73.6217134,
          33.0962076
        ]
      },
      "properties": {
        "id": 2242467056,
        "name": "Market",
        "shop": "supermarket"
      }
    },
    {
      "type": "Feature",
      "geometry": {
        "type": "Point",
        "coordinates": [
          73.7356335,
          33.148769200000004
        ]
      },
      "properties": {
        "id": 2242753499,
        "name": "Muhammadi Plaza",
        "shop": "supermarket"
      }
    },
    {
      "type": "Feature",
      "geometry": {
        "type": "Point",
        "coordinates": [
          73.72373610000001,
          33.1472916
        ]
      },
      "properties": {
        "id": 2246458316,
        "name": "Kalyal chowk",
        "shop": "supermarket"
      }
    },
    {
      "type": "Feature",
      "geometry": {
        "type": "Point",
        "coordinates": [
          73.14446090000001,
          33.571561900000006
        ]
      },
      "properties": {
        "id": 2381256497,
        "name": "Tradex",
        "shop": "supermarket"
      }
    },
    {
      "type": "Feature",
      "geometry": {
        "type": "Point",
        "coordinates": [
          73.1564592,
          33.565605700000006
        ]
      },
      "properties": {
        "id": 2381270943,
        "name": "Hashmi's",
        "shop": "supermarket"
      }
    },
    {
      "type": "Feature",
      "geometry": {
        "type": "Point",
        "coordinates": [
          73.13553950000001,
          33.5584336
        ]
      },
      "properties": {
        "id": 2390849264,
        "name": "Sales Way",
        "shop": "supermarket"
      }
    },
    {
      "type": "Feature",
      "geometry": {
        "type": "Point",
        "coordinates": [
          74.2547109,
          31.5460859
        ]
      },
      "properties": {
        "id": 2419021216,
        "name": "Unnamed",
        "shop": "supermarket"
      }
    },
    {
      "type": "Feature",
      "geometry": {
        "type": "Point",
        "coordinates": [
          72.9790167,
          33.6211556
        ]
      },
      "properties": {
        "id": 2456679709,
        "name": "Taj  Complex",
        "shop": "supermarket"
      }
    },
    {
      "type": "Feature",
      "geometry": {
        "type": "Point",
        "coordinates": [
          73.07513060000001,
          33.588424100000005
        ]
      },
      "properties": {
        "id": 2461391567,
        "name": "Unnamed",
        "shop": "convenience"
      }
    },
    {
      "type": "Feature",
      "geometry": {
        "type": "Point",
        "coordinates": [
          72.72491910000001,
          33.784128700000004
        ]
      },
      "properties": {
        "id": 2476291417,
        "name": "Qazi super store",
        "shop": "supermarket"
      }
    },
    {
      "type": "Feature",
      "geometry": {
        "type": "Point",
        "coordinates": [
          67.0340335,
          24.821704600000004
        ]
      },
      "properties": {
        "id": 2552344525,
        "name": "Emerald Mall & Tower",
        "addr:city": "Karachi",
        "addr:place": "Clifton Block 5",
        "addr:street": "Khayban e Iqbal",
        "shop": "mall"
      }
    },
    {
      "type": "Feature",
      "geometry": {
        "type": "Point",
        "coordinates": [
          72.02124950000001,
          33.782080500000006
        ]
      },
      "properties": {
        "id": 2590004304,
        "name": "Mini Market",
        "shop": "convenience"
      }
    },
    {
      "type": "Feature",
      "geometry": {
        "type": "Point",
        "coordinates": [
          71.56270210000001,
          33.824074800000005
        ]
      },
      "properties": {
        "id": 2593795719,
        "name": "Mini Stop",
        "shop": "convenience"
      }
    },
    {
      "type": "Feature",
      "geometry": {
        "type": "Point",
        "coordinates": [
          71.5657486,
          33.843038
        ]
      },
      "properties": {
        "id": 2593799124,
        "name": "Mini Market",
        "shop": "convenience"
      }
    },
    {
      "type": "Feature",
      "geometry": {
        "type": "Point",
        "coordinates": [
          73.20309710000001,
          33.256078900000006
        ]
      },
      "properties": {
        "id": 2627066822,
        "name": "Roopyal Briks",
        "shop": "supermarket"
      }
    },
    {
      "type": "Feature",
      "geometry": {
        "type": "Point",
        "coordinates": [
          73.3033075,
          33.256748400000006
        ]
      },
      "properties": {
        "id": 2638602474,
        "name": "Utility Store",
        "addr:city": "Gujar Khan",
        "shop": "convenience"
      }
    },
    {
      "type": "Feature",
      "geometry": {
        "type": "Point",
        "coordinates": [
          73.2507298,
          33.3488671
        ]
      },
      "properties": {
        "id": 2641018308,
        "name": "Unnamed",
        "addr:city": "Bucha",
        "shop": "convenience"
      }
    },
    {
      "type": "Feature",
      "geometry": {
        "type": "Point",
        "coordinates": [
          73.3060028,
          33.2546194
        ]
      },
      "properties": {
        "id": 2641096469,
        "name": "Subway Shopping Mall",
        "addr:city": "Gujar Khan",
        "shop": "supermarket"
      }
    },
    {
      "type": "Feature",
      "geometry": {
        "type": "Point",
        "coordinates": [
          73.2155317,
          34.5148609
        ]
      },
      "properties": {
        "id": 2685927598,
        "name": "Unnamed",
        "fixme": "kind of shop",
        "shop": "convenience",
        "source": "bing, Wikimapia"
      }
    },
    {
      "type": "Feature",
      "geometry": {
        "type": "Point",
        "coordinates": [
          73.2160096,
          34.5148683
        ]
      },
      "properties": {
        "id": 2685927602,
        "name": "Unnamed",
        "fixme": "kind of shop",
        "shop": "convenience",
        "source": "bing, Wikimapia"
      }
    },
    {
      "type": "Feature",
      "geometry": {
        "type": "Point",
        "coordinates": [
          73.2151855,
          34.5148981
        ]
      },
      "properties": {
        "id": 2685927605,
        "name": "Unnamed",
        "fixme": "kind of shop",
        "shop": "convenience",
        "source": "bing, Wikimapia"
      }
    },
    {
      "type": "Feature",
      "geometry": {
        "type": "Point",
        "coordinates": [
          73.17397860000001,
          34.549668100000005
        ]
      },
      "properties": {
        "id": 2688865774,
        "name": "Unnamed",
        "shop": "convenience"
      }
    },
    {
      "type": "Feature",
      "geometry": {
        "type": "Point",
        "coordinates": [
          73.1322566,
          33.5355428
        ]
      },
      "properties": {
        "id": 2775047846,
        "name": "Shopping mall Sector A",
        "shop": "supermarket"
      }
    },
    {
      "type": "Feature",
      "geometry": {
        "type": "Point",
        "coordinates": [
          71.4984306,
          34.001751600000006
        ]
      },
      "properties": {
        "id": 2781378242,
        "name": "Sha Posh",
        "shop": "mall"
      }
    },
    {
      "type": "Feature",
      "geometry": {
        "type": "Point",
        "coordinates": [
          72.33173500000001,
          34.2122705
        ]
      },
      "properties": {
        "id": 2895086566,
        "name": "Unnamed",
        "shop": "supermarket"
      }
    },
    {
      "type": "Feature",
      "geometry": {
        "type": "Point",
        "coordinates": [
          74.098836,
          32.249710300000004
        ]
      },
      "properties": {
        "id": 2911913263,
        "name": "Burraq Shopping",
        "shop": "mall"
      }
    },
    {
      "type": "Feature",
      "geometry": {
        "type": "Point",
        "coordinates": [
          73.1068628,
          31.410729000000003
        ]
      },
      "properties": {
        "id": 2912529166,
        "name": "SB Departmenal Store",
        "addr:city": "فیصل آباد",
        "addr:city:en": "Faisalabad",
        "addr:city:fr": "Faisalabad",
        "addr:city:pa": "ਫ਼ੈਸਲਾਬਾਦ",
        "addr:city:pnb": "فیصل آباد",
        "addr:city:ur": "فیصل آباد",
        "addr:street": "Chenone Road",
        "shop": "supermarket"
      }
    },
    {
      "type": "Feature",
      "geometry": {
        "type": "Point",
        "coordinates": [
          73.0985199,
          31.407685700000002
        ]
      },
      "properties": {
        "id": 2912532536,
        "name": "Rehman Heights",
        "addr:city": "فیصل آباد",
        "addr:city:en": "Faisalabad",
        "addr:city:fr": "Faisalabad",
        "addr:city:pa": "ਫ਼ੈਸਲਾਬਾਦ",
        "addr:city:pnb": "فیصل آباد",
        "addr:city:ur": "فیصل آباد",
        "addr:street": "Satiana Road",
        "shop": "mall"
      }
    },
    {
      "type": "Feature",
      "geometry": {
        "type": "Point",
        "coordinates": [
          73.11569060000001,
          31.411939300000004
        ]
      },
      "properties": {
        "id": 2913717091,
        "name": "Al-Fateh Store",
        "addr:city": "فیصل آباد",
        "addr:city:en": "Faisalabad",
        "addr:city:fr": "Faisalabad",
        "addr:city:pa": "ਫ਼ੈਸਲਾਬਾਦ",
        "addr:city:pnb": "فیصل آباد",
        "addr:city:ur": "فیصل آباد",
        "addr:street": "Jaranwala Road",
        "shop": "supermarket"
      }
    },
    {
      "type": "Feature",
      "geometry": {
        "type": "Point",
        "coordinates": [
          73.11360470000001,
          31.4132029
        ]
      },
      "properties": {
        "id": 2913717138,
        "name": "Mediacom Shopping Cneter",
        "addr:city": "فیصل آباد",
        "addr:city:en": "Faisalabad",
        "addr:city:fr": "Faisalabad",
        "addr:city:pa": "ਫ਼ੈਸਲਾਬਾਦ",
        "addr:city:pnb": "فیصل آباد",
        "addr:city:ur": "فیصل آباد",
        "addr:street": "Jaranwala Road",
        "shop": "mall"
      }
    },
    {
      "type": "Feature",
      "geometry": {
        "type": "Point",
        "coordinates": [
          73.0902068,
          31.422189000000003
        ]
      },
      "properties": {
        "id": 2913762441,
        "name": "Regency Plaza",
        "addr:city": "فیصل آباد",
        "addr:city:en": "Faisalabad",
        "addr:city:fr": "Faisalabad",
        "addr:city:pa": "ਫ਼ੈਸਲਾਬਾਦ",
        "addr:city:pnb": "فیصل آباد",
        "addr:city:ur": "فیصل آباد",
        "addr:street": "Mall Road",
        "shop": "mall"
      }
    },
    {
      "type": "Feature",
      "geometry": {
        "type": "Point",
        "coordinates": [
          73.1103494,
          31.409259800000005
        ]
      },
      "properties": {
        "id": 2913842704,
        "name": "Hassan Shopping Mall",
        "addr:city": "فیصل آباد",
        "addr:city:en": "Faisalabad",
        "addr:city:fr": "Faisalabad",
        "addr:city:pa": "ਫ਼ੈਸਲਾਬਾਦ",
        "addr:city:pnb": "فیصل آباد",
        "addr:city:ur": "فیصل آباد",
        "addr:street": "Ripple Lane",
        "shop": "mall"
      }
    },
    {
      "type": "Feature",
      "geometry": {
        "type": "Point",
        "coordinates": [
          73.11014010000001,
          31.408921600000003
        ]
      },
      "properties": {
        "id": 2913846210,
        "name": "Ripple Plaza",
        "addr:city": "فیصل آباد",
        "addr:city:en": "Faisalabad",
        "addr:city:fr": "Faisalabad",
        "addr:city:pa": "ਫ਼ੈਸਲਾਬਾਦ",
        "addr:city:pnb": "فیصل آباد",
        "addr:city:ur": "فیصل آباد",
        "addr:street": "Ripple Lane",
        "shop": "mall"
      }
    },
    {
      "type": "Feature",
      "geometry": {
        "type": "Point",
        "coordinates": [
          72.46233380000001,
          30.748745200000002
        ]
      },
      "properties": {
        "id": 2917403001,
        "name": "Asif Convenience Store",
        "addr:housenumber": "205A",
        "addr:street": "M. M. Alam Road",
        "old_name": "Asif Kariana Store",
        "shop": "convenience"
      }
    },
    {
      "type": "Feature",
      "geometry": {
        "type": "Point",
        "coordinates": [
          72.4632148,
          30.748959600000003
        ]
      },
      "properties": {
        "id": 2917421218,
        "name": "Sadiq Convenience Store",
        "addr:housenumber": "234A",
        "addr:street": "Masjid Road",
        "old_name": "Sadiq Kariana Store",
        "shop": "convenience"
      }
    },
    {
      "type": "Feature",
      "geometry": {
        "type": "Point",
        "coordinates": [
          72.46311150000001,
          30.7490358
        ]
      },
      "properties": {
        "id": 2917423881,
        "name": "Ashraf Convenience Store",
        "addr:housenumber": "223",
        "addr:street": "Masjid Road",
        "old_name": "Ashraf kariana store",
        "shop": "convenience"
      }
    },
    {
      "type": "Feature",
      "geometry": {
        "type": "Point",
        "coordinates": [
          72.4615907,
          30.749704200000004
        ]
      },
      "properties": {
        "id": 2917427025,
        "name": "Ismaeel Convenience Store",
        "addr:housenumber": "199",
        "addr:street": "M. M. Alam Road",
        "old_name": "Ismaeel Kariana Store",
        "shop": "convenience"
      }
    },
    {
      "type": "Feature",
      "geometry": {
        "type": "Point",
        "coordinates": [
          74.3660636,
          31.531784200000004
        ]
      },
      "properties": {
        "id": 2942839104,
        "name": "Fortress Stadium Lahore",
        "shop": "mall"
      }
    },
    {
      "type": "Feature",
      "geometry": {
        "type": "Point",
        "coordinates": [
          74.37843670000001,
          31.529387600000003
        ]
      },
      "properties": {
        "id": 2944220310,
        "name": "Mall of Lahore",
        "addr:city": "Lahore",
        "addr:street": "Tufail Road",
        "shop": "mall"
      }
    },
    {
      "type": "Feature",
      "geometry": {
        "type": "Point",
        "coordinates": [
          74.3211976,
          31.562009800000002
        ]
      },
      "properties": {
        "id": 2953190108,
        "name": "Panorama Shopping Centre",
        "addr:city": "لاہور",
        "addr:street": "مال روڈ",
        "name:en": "Panorama Shopping Centre",
        "shop": "mall"
      }
    },
    {
      "type": "Feature",
      "geometry": {
        "type": "Point",
        "coordinates": [
          74.34241130000001,
          31.515342300000004
        ]
      },
      "properties": {
        "id": 2953398986,
        "name": "Pace Shopping Mall",
        "opening_hours": "11am till 12am",
        "operator": "Salman Taseer Family Former governer Punjab",
        "phone": "042 35870207",
        "shop": "mall"
      }
    },
    {
      "type": "Feature",
      "geometry": {
        "type": "Point",
        "coordinates": [
          74.34289810000001,
          31.516093500000004
        ]
      },
      "properties": {
        "id": 2953398991,
        "name": "Hafeez Centre",
        "addr:city": "لاہور",
        "name:en": "Hafeez Centre",
        "opening_hours": "Mo-Sa 11:00-23:00; Su off",
        "shop": "mall"
      }
    },
    {
      "type": "Feature",
      "geometry": {
        "type": "Point",
        "coordinates": [
          74.3423252,
          31.516263200000004
        ]
      },
      "properties": {
        "id": 2953398992,
        "name": "Chen one",
        "shop": "supermarket"
      }
    },
    {
      "type": "Feature",
      "geometry": {
        "type": "Point",
        "coordinates": [
          74.34687380000001,
          31.520896600000004
        ]
      },
      "properties": {
        "id": 2953398997,
        "name": "Gulberg Centre",
        "addr:city": "لاہور",
        "name:en": "Gulberg Centre",
        "shop": "mall"
      }
    },
    {
      "type": "Feature",
      "geometry": {
        "type": "Point",
        "coordinates": [
          74.33961790000001,
          31.510360100000003
        ]
      },
      "properties": {
        "id": 2953399014,
        "name": "Big City Tower",
        "shop": "mall"
      }
    },
    {
      "type": "Feature",
      "geometry": {
        "type": "Point",
        "coordinates": [
          74.20337950000001,
          32.163338700000004
        ]
      },
      "properties": {
        "id": 2963708804,
        "name": "Satellite Town Market",
        "shop": "mall"
      }
    },
    {
      "type": "Feature",
      "geometry": {
        "type": "Point",
        "coordinates": [
          74.12235360000001,
          32.4026623
        ]
      },
      "properties": {
        "id": 2965411133,
        "name": "Unnamed",
        "shop": "convenience"
      }
    },
    {
      "type": "Feature",
      "geometry": {
        "type": "Point",
        "coordinates": [
          71.4573641,
          30.186513
        ]
      },
      "properties": {
        "id": 3055801017,
        "name": "Food Festival",
        "shop": "supermarket"
      }
    },
    {
      "type": "Feature",
      "geometry": {
        "type": "Point",
        "coordinates": [
          74.18338580000001,
          32.1740926
        ]
      },
      "properties": {
        "id": 3096048894,
        "name": "Trust Plaza",
        "shop": "mall"
      }
    },
    {
      "type": "Feature",
      "geometry": {
        "type": "Point",
        "coordinates": [
          73.21714730000001,
          34.1517234
        ]
      },
      "properties": {
        "id": 3104458554,
        "name": "Unnamed",
        "shop": "convenience"
      }
    },
    {
      "type": "Feature",
      "geometry": {
        "type": "Point",
        "coordinates": [
          73.21682320000001,
          34.1507865
        ]
      },
      "properties": {
        "id": 3105957260,
        "name": "Unnamed",
        "shop": "convenience"
      }
    },
    {
      "type": "Feature",
      "geometry": {
        "type": "Point",
        "coordinates": [
          73.22206030000001,
          34.155646600000004
        ]
      },
      "properties": {
        "id": 3110903969,
        "name": "Unnamed",
        "shop": "convenience"
      }
    },
    {
      "type": "Feature",
      "geometry": {
        "type": "Point",
        "coordinates": [
          71.4314751,
          33.5041999
        ]
      },
      "properties": {
        "id": 3234020015,
        "name": "Unnamed",
        "shop": "supermarket"
      }
    },
    {
      "type": "Feature",
      "geometry": {
        "type": "Point",
        "coordinates": [
          73.12495670000001,
          33.601315
        ]
      },
      "properties": {
        "id": 3250338592,
        "name": "Madina Cash and Carry",
        "shop": "supermarket"
      }
    },
    {
      "type": "Feature",
      "geometry": {
        "type": "Point",
        "coordinates": [
          71.46195990000001,
          34.0079744
        ]
      },
      "properties": {
        "id": 3266177809,
        "name": "shops",
        "shop": "convenience"
      }
    },
    {
      "type": "Feature",
      "geometry": {
        "type": "Point",
        "coordinates": [
          71.5783305,
          33.7842415
        ]
      },
      "properties": {
        "id": 3270634368,
        "name": "MARKET",
        "shop": "supermarket"
      }
    },
    {
      "type": "Feature",
      "geometry": {
        "type": "Point",
        "coordinates": [
          71.55778600000001,
          33.7941104
        ]
      },
      "properties": {
        "id": 3270634583,
        "name": "MARKET",
        "shop": "supermarket"
      }
    },
    {
      "type": "Feature",
      "geometry": {
        "type": "Point",
        "coordinates": [
          71.50547110000001,
          33.961106
        ]
      },
      "properties": {
        "id": 3273193520,
        "name": "super store",
        "shop": "supermarket"
      }
    },
    {
      "type": "Feature",
      "geometry": {
        "type": "Point",
        "coordinates": [
          71.4993184,
          33.9636371
        ]
      },
      "properties": {
        "id": 3273193528,
        "name": "Hyper Shopping Mall Parking",
        "opening_hours": "Mo-Su 10:00-22:00",
        "shop": "mall"
      }
    },
    {
      "type": "Feature",
      "geometry": {
        "type": "Point",
        "coordinates": [
          71.5045788,
          33.9615469
        ]
      },
      "properties": {
        "id": 3276386482,
        "name": "Unnamed",
        "shop": "supermarket"
      }
    },
    {
      "type": "Feature",
      "geometry": {
        "type": "Point",
        "coordinates": [
          71.4990494,
          34.002322400000004
        ]
      },
      "properties": {
        "id": 3280255620,
        "name": "Fawad Plaza",
        "shop": "mall"
      }
    },
    {
      "type": "Feature",
      "geometry": {
        "type": "Point",
        "coordinates": [
          71.54357130000001,
          33.6714751
        ]
      },
      "properties": {
        "id": 3287095919,
        "name": "Karyana store",
        "shop": "supermarket"
      }
    },
    {
      "type": "Feature",
      "geometry": {
        "type": "Point",
        "coordinates": [
          71.5431046,
          33.663183700000005
        ]
      },
      "properties": {
        "id": 3287095936,
        "name": "Karyana store",
        "shop": "supermarket"
      }
    },
    {
      "type": "Feature",
      "geometry": {
        "type": "Point",
        "coordinates": [
          71.54259330000001,
          33.6610114
        ]
      },
      "properties": {
        "id": 3287095938,
        "name": "Karyana store",
        "shop": "supermarket"
      }
    },
    {
      "type": "Feature",
      "geometry": {
        "type": "Point",
        "coordinates": [
          71.54301980000001,
          33.6596902
        ]
      },
      "properties": {
        "id": 3287095941,
        "name": "Karyana store",
        "shop": "supermarket"
      }
    },
    {
      "type": "Feature",
      "geometry": {
        "type": "Point",
        "coordinates": [
          74.3153334,
          31.5043432
        ]
      },
      "properties": {
        "id": 3356373676,
        "name": "Ahmed Block Market",
        "opening_hours": "23:00+",
        "shop": "convenience"
      }
    },
    {
      "type": "Feature",
      "geometry": {
        "type": "Point",
        "coordinates": [
          72.35966920000001,
          33.7882292
        ]
      },
      "properties": {
        "id": 3387286994,
        "name": "SANA Plaza",
        "addr:city": "attock",
        "shop": "mall"
      }
    },
    {
      "type": "Feature",
      "geometry": {
        "type": "Point",
        "coordinates": [
          72.3585041,
          33.767321700000004
        ]
      },
      "properties": {
        "id": 3387444625,
        "name": "ADIL PLAZA / عادل پلازا",
        "shop": "mall"
      }
    },
    {
      "type": "Feature",
      "geometry": {
        "type": "Point",
        "coordinates": [
          74.4397261,
          31.520263900000003
        ]
      },
      "properties": {
        "id": 3408077749,
        "name": "EURO Store",
        "addr:city": "Lahore",
        "addr:street": "DHA Phase 8 Main Boulevald",
        "opening_hours": "07:00-23:30",
        "shop": "supermarket"
      }
    },
    {
      "type": "Feature",
      "geometry": {
        "type": "Point",
        "coordinates": [
          73.0437969,
          33.667558400000004
        ]
      },
      "properties": {
        "id": 3438923548,
        "name": "Khokaa",
        "alt_name": "guddu's khokaa",
        "designation": "tuck shop",
        "shop": "convenience"
      }
    },
    {
      "type": "Feature",
      "geometry": {
        "type": "Point",
        "coordinates": [
          72.9179326,
          33.640065400000005
        ]
      },
      "properties": {
        "id": 3446243039,
        "name": "Unnamed",
        "shop": "supermarket"
      }
    },
    {
      "type": "Feature",
      "geometry": {
        "type": "Point",
        "coordinates": [
          72.04122100000001,
          34.196627500000005
        ]
      },
      "properties": {
        "id": 3456940875,
        "name": "Al Maroof Plaza",
        "addr:city": "Mardan",
        "shop": "mall"
      }
    },
    {
      "type": "Feature",
      "geometry": {
        "type": "Point",
        "coordinates": [
          74.42581080000001,
          32.3824887
        ]
      },
      "properties": {
        "id": 3500692695,
        "name": "BaBa Tiki tafi Tuck shop",
        "addr:city": "Duska, Silakot",
        "addr:housenumber": "Adda Maotra",
        "addr:postcode": "54000",
        "addr:street": "Badyana Road",
        "note": "Beverage and Edibles are available hare",
        "phone": "03436384700",
        "shop": "supermarket"
      }
    },
    {
      "type": "Feature",
      "geometry": {
        "type": "Point",
        "coordinates": [
          74.4258296,
          32.382658600000006
        ]
      },
      "properties": {
        "id": 3500692696,
        "name": "Daar ul Hikmat Stationaries",
        "addr:city": "Maotra",
        "addr:housenumber": "Adda Maotra",
        "addr:street": "Badyana Road",
        "note": "Owner Muhammad Waqar Butt",
        "phone": "03026149549",
        "shop": "supermarket"
      }
    },
    {
      "type": "Feature",
      "geometry": {
        "type": "Point",
        "coordinates": [
          74.42591270000001,
          32.382647600000006
        ]
      },
      "properties": {
        "id": 3500717893,
        "name": "Islam General Store",
        "addr:street": "Badyana Road",
        "operator": "Muhammad Usman Butt",
        "phone": "03006119636",
        "shop": "supermarket"
      }
    },
    {
      "type": "Feature",
      "geometry": {
        "type": "Point",
        "coordinates": [
          74.42486530000001,
          32.3827835
        ]
      },
      "properties": {
        "id": 3500721274,
        "name": "Tahir Electronics",
        "addr:street": "Badyana Road",
        "operator": "Tahir Mughal",
        "phone": "03006139697",
        "shop": "supermarket"
      }
    },
    {
      "type": "Feature",
      "geometry": {
        "type": "Point",
        "coordinates": [
          74.4314963,
          32.381736800000006
        ]
      },
      "properties": {
        "id": 3500852090,
        "name": "Jaan Karyana Store",
        "addr:street": "Badyana Road",
        "operator": "Muhammad Waris",
        "shop": "convenience"
      }
    },
    {
      "type": "Feature",
      "geometry": {
        "type": "Point",
        "coordinates": [
          74.4311959,
          32.3816666
        ]
      },
      "properties": {
        "id": 3500856651,
        "name": "Saju Karyana Store",
        "addr:street": "badyana Road",
        "operator": "Wasim ( Saju )",
        "shop": "convenience"
      }
    },
    {
      "type": "Feature",
      "geometry": {
        "type": "Point",
        "coordinates": [
          74.42578060000001,
          32.3824892
        ]
      },
      "properties": {
        "id": 3500894768,
        "name": "Zia Fancy Shoes",
        "addr:city": "Maotra",
        "addr:housenumber": "Zia",
        "addr:street": "Badyana Road",
        "operator": "Muhammad Zia",
        "phone": "03006117036",
        "shop": "supermarket"
      }
    },
    {
      "type": "Feature",
      "geometry": {
        "type": "Point",
        "coordinates": [
          74.3410771,
          31.5158738
        ]
      },
      "properties": {
        "id": 3509028474,
        "name": "IT Tower",
        "shop": "mall"
      }
    },
    {
      "type": "Feature",
      "geometry": {
        "type": "Point",
        "coordinates": [
          74.34197970000001,
          31.515530700000003
        ]
      },
      "properties": {
        "id": 3509028479,
        "name": "Hasan Centre",
        "addr:city": "لاہور",
        "name:en": "Hasan Centre",
        "shop": "mall"
      }
    },
    {
      "type": "Feature",
      "geometry": {
        "type": "Point",
        "coordinates": [
          74.34169100000001,
          31.5157005
        ]
      },
      "properties": {
        "id": 3509028484,
        "name": "Fazal Centre",
        "addr:city": "لاہور",
        "name:en": "Fazal Centre",
        "shop": "mall"
      }
    },
    {
      "type": "Feature",
      "geometry": {
        "type": "Point",
        "coordinates": [
          73.102653,
          33.646909
        ]
      },
      "properties": {
        "id": 3517200569,
        "name": "Satti plaza",
        "shop": "mall"
      }
    },
    {
      "type": "Feature",
      "geometry": {
        "type": "Point",
        "coordinates": [
          73.013012,
          33.683421
        ]
      },
      "properties": {
        "id": 3517203103,
        "name": "Ghosiya Market",
        "addr:city": "اسلام آباد",
        "addr:city:ar": "إسلام آباد",
        "addr:city:en": "Islamabad",
        "addr:city:ks": "اِسلام آبادٖ",
        "addr:city:pnb": "اسلام آباد",
        "addr:city:ps": "اسلام آباد",
        "addr:city:sd": "اسلام آباد",
        "addr:city:ur": "اسلام آباد",
        "addr:street": "Street 6",
        "shop": "convenience"
      }
    },
    {
      "type": "Feature",
      "geometry": {
        "type": "Point",
        "coordinates": [
          73.017858,
          33.695829
        ]
      },
      "properties": {
        "id": 3517203500,
        "name": "Mega Zone",
        "shop": "mall"
      }
    },
    {
      "type": "Feature",
      "geometry": {
        "type": "Point",
        "coordinates": [
          73.57425400000001,
          33.897170700000004
        ]
      },
      "properties": {
        "id": 3524862053,
        "name": "Central Convenience Store",
        "addr:city": "Mallot Sattian",
        "addr:housenumber": "1",
        "addr:street": "Pines Street",
        "opening_hours": "08:00-20:00",
        "operator": "Shah Nawaz Enterprises",
        "shop": "convenience"
      }
    },
    {
      "type": "Feature",
      "geometry": {
        "type": "Point",
        "coordinates": [
          67.0965584,
          24.917041700000002
        ]
      },
      "properties": {
        "id": 3525961293,
        "name": "Chase Up",
        "addr:city": "Karachi",
        "addr:street": "University Road",
        "operator": "Chase",
        "shop": "supermarket"
      }
    },
    {
      "type": "Feature",
      "geometry": {
        "type": "Point",
        "coordinates": [
          74.2921479,
          31.520129000000004
        ]
      },
      "properties": {
        "id": 3536164081,
        "name": "Unnamed",
        "shop": "supermarket"
      }
    },
    {
      "type": "Feature",
      "geometry": {
        "type": "Point",
        "coordinates": [
          74.33606440000001,
          31.507130500000002
        ]
      },
      "properties": {
        "id": 3536372093,
        "name": "Centre Point Plaza",
        "addr:city": "لاہور",
        "name:en": "Centre Point Plaza",
        "shop": "mall"
      }
    },
    {
      "type": "Feature",
      "geometry": {
        "type": "Point",
        "coordinates": [
          72.3190048,
          34.2134784
        ]
      },
      "properties": {
        "id": 3578748889,
        "name": "BATA",
        "addr:city": "SHEWA ADDA SWABI",
        "addr:street": "Swabi - Mardan Highway",
        "operator": "http://bata.pk/",
        "shop": "supermarket"
      }
    },
    {
      "type": "Feature",
      "geometry": {
        "type": "Point",
        "coordinates": [
          74.2784422,
          31.543444900000004
        ]
      },
      "properties": {
        "id": 3599952701,
        "name": "Malik Rice Traders",
        "addr:city": "lahore",
        "addr:postcode": "54500",
        "addr:street": "New Shalimar Road",
        "opening_hours": "Sa-Th 09:00-20:00; Fr off",
        "operator": "Malik Kamran and Malik Waseem",
        "phone": "+92 321 4530013",
        "shop": "supermarket"
      }
    },
    {
      "type": "Feature",
      "geometry": {
        "type": "Point",
        "coordinates": [
          67.33069,
          24.867632900000004
        ]
      },
      "properties": {
        "id": 3659273823,
        "name": "Russian Market",
        "shop": "convenience"
      }
    },
    {
      "type": "Feature",
      "geometry": {
        "type": "Point",
        "coordinates": [
          67.3375893,
          24.862500500000003
        ]
      },
      "properties": {
        "id": 3659274025,
        "name": "CSD Market",
        "shop": "convenience"
      }
    },
    {
      "type": "Feature",
      "geometry": {
        "type": "Point",
        "coordinates": [
          67.3419681,
          24.871560300000002
        ]
      },
      "properties": {
        "id": 3659298106,
        "name": "Pakistani market",
        "shop": "convenience"
      }
    },
    {
      "type": "Feature",
      "geometry": {
        "type": "Point",
        "coordinates": [
          73.32041140000001,
          31.1208792
        ]
      },
      "properties": {
        "id": 3666263475,
        "name": "Shahid Bhai karyana store",
        "shop": "supermarket"
      }
    },
    {
      "type": "Feature",
      "geometry": {
        "type": "Point",
        "coordinates": [
          73.3212644,
          31.1198
        ]
      },
      "properties": {
        "id": 3666263516,
        "name": "Zahid Bhai karyana store",
        "shop": "supermarket"
      }
    },
    {
      "type": "Feature",
      "geometry": {
        "type": "Point",
        "coordinates": [
          73.3211795,
          31.119910300000004
        ]
      },
      "properties": {
        "id": 3666266461,
        "name": "Mashallah karyana store",
        "shop": "supermarket"
      }
    },
    {
      "type": "Feature",
      "geometry": {
        "type": "Point",
        "coordinates": [
          73.32202880000001,
          31.121678300000003
        ]
      },
      "properties": {
        "id": 3666271605,
        "name": "Unnamed",
        "shop": "supermarket"
      }
    },
    {
      "type": "Feature",
      "geometry": {
        "type": "Point",
        "coordinates": [
          74.3455904,
          31.5238018
        ]
      },
      "properties": {
        "id": 3692740646,
        "name": "Jalal Sons",
        "opening_hours": "08:00-23:00",
        "shop": "supermarket"
      }
    },
    {
      "type": "Feature",
      "geometry": {
        "type": "Point",
        "coordinates": [
          73.27690670000001,
          34.1373551
        ]
      },
      "properties": {
        "id": 3709403015,
        "name": "Tashi General Store",
        "shop": "convenience"
      }
    },
    {
      "type": "Feature",
      "geometry": {
        "type": "Point",
        "coordinates": [
          73.2769066,
          34.13735560000001
        ]
      },
      "properties": {
        "id": 3709403017,
        "name": "Tashi General store",
        "shop": "convenience"
      }
    },
    {
      "type": "Feature",
      "geometry": {
        "type": "Point",
        "coordinates": [
          73.08232190000001,
          33.7425222
        ]
      },
      "properties": {
        "id": 3791063708,
        "name": "Jufruta Shop",
        "shop": "convenience"
      }
    },
    {
      "type": "Feature",
      "geometry": {
        "type": "Point",
        "coordinates": [
          67.0508461,
          24.9557128
        ]
      },
      "properties": {
        "id": 3847129791,
        "name": "Rainbow Super Mart",
        "addr:city": "Karachi",
        "addr:country": "PK",
        "addr:postcode": "74700",
        "addr:province": "Sindh",
        "addr:suburb": "North Nazimabad Town",
        "shop": "supermarket"
      }
    },
    {
      "type": "Feature",
      "geometry": {
        "type": "Point",
        "coordinates": [
          67.04857550000001,
          24.9417082
        ]
      },
      "properties": {
        "id": 3848458221,
        "name": "Chase Value Cenre",
        "addr:city": "Karachi",
        "addr:country": "PK",
        "addr:postcode": "74700",
        "addr:province": "Sindh",
        "addr:street": "Shahrah Jahangir",
        "addr:suburb": "North Nazimabad Town",
        "shop": "supermarket"
      }
    },
    {
      "type": "Feature",
      "geometry": {
        "type": "Point",
        "coordinates": [
          67.0444542,
          24.9386061
        ]
      },
      "properties": {
        "id": 3853876959,
        "name": "Saima Pari Mall",
        "addr:city": "Karachi",
        "addr:country": "PK",
        "addr:postcode": "74700",
        "addr:province": "Sindh",
        "addr:street": "Shahrah Sher Shah Suri",
        "addr:suburb": "North Nazimabad Town",
        "shop": "mall"
      }
    },
    {
      "type": "Feature",
      "geometry": {
        "type": "Point",
        "coordinates": [
          69.153608,
          29.0300243
        ]
      },
      "properties": {
        "id": 3868330337,
        "name": "Main Market",
        "shop": "mall"
      }
    },
    {
      "type": "Feature",
      "geometry": {
        "type": "Point",
        "coordinates": [
          72.8366352,
          33.685914200000006
        ]
      },
      "properties": {
        "id": 3921846719,
        "name": "Safa Cash And Carry",
        "shop": "supermarket"
      }
    },
    {
      "type": "Feature",
      "geometry": {
        "type": "Point",
        "coordinates": [
          67.1517336,
          24.9381659
        ]
      },